记录数,address,city,closeTime,features,hasArtwork,latitude,longitude,openTime,postalCode,storeName,storeNumber,记录数
1,兰州新区出发安检内CF-37商铺中川机场T2航站楼,兰州市,1899/12/30 21:30:00,['OG'],伪,36.504707,103.618088,1899/12/30 6:00:00,730000,兰州中川机场店,52438-281554,1
1,兰州市城关区雁滩路3113号,兰州市,1899/12/30 23:00:00,"['OG', 'DL', 'PO']",伪,36.061108,103.870931,1899/12/30 7:30:00,730000,兰州市欣大百货店,56295-290190,1
1,城关区万达广场1层天水北路68号,兰州市,1899/12/30 23:00:00,"['OG', 'DL', 'MIC', 'PO']",伪,36.063614,103.862203,1899/12/30 7:30:00,730000,兰州城关万达店,24777-238531,1
1,城关区北京华联一层南昌路892号,兰州市,1899/12/30 23:00:00,"['OG', 'DL']",伪,36.05559,103.845779,1899/12/30 7:30:00,730000,兰州平凉路BHG店,52779-282484,1
1,城关区国芳百货1F东方红广场,兰州市,1899/12/30 23:00:00,"['OG', 'DL', 'MIC']",伪,36.051879,103.844903,1899/12/30 7:30:00,730000,兰州东方红国芳百货店,25923-241626,1
1,城关区亚欧商厦一层中山路120号,兰州市,1899/12/30 23:00:00,"['OG', 'DL', 'MIC']",伪,36.059997,103.818006,1899/12/30 7:30:00,730000,兰州亚欧商厦店,47232-255726,1
1,西津西路16号,兰州市,1899/12/30 23:00:00,"['OG', 'DL', 'MIC', 'RC']",伪,36.068133,103.774313,1899/12/30 7:30:00,730000,兰州市兰州中心门店,51350-268764,1
1,兰州市七里河区柳家营1号None兰州市七里河区柳家营1号,兰州市,1899/12/30 23:00:00,"['OG', 'DL', 'MIC', 'PO']",伪,36.070357,103.765617,1899/12/30 7:30:00,730000,兰州七里河中天健广场店,58314-291872,1
1,建华区新江路与引水街交汇万达广场01层94号8铺位号,齐齐哈尔市,1899/12/30 21:00:00,"['OG', 'DL', 'MIC', 'PO']",伪,47.366553,123.950698,1899/12/30 9:00:00,161000,齐齐哈尔万达广场店,55196-289026,1
1,利民开发区None利民大道555号一层B12800号铺位,哈尔滨,1899/12/30 21:00:00,"['OG', 'DL', 'PO']",伪,45.876235,126.56009,1899/12/30 10:00:00,150000,哈尔滨杉杉奥莱店,54375-286626,1
1,道外区百盛商场一层东直路118号,哈尔滨,1899/12/30 21:00:00,"['OG', 'DL']",伪,45.785526,126.676954,1899/12/30 9:00:00,150000,哈尔滨道外百盛店,24778-238525,1
1,哈尔滨市松北区江北世茂大道和聚源路交叉None哈尔滨万象汇L1层L101号商铺星巴克,哈尔滨,1899/12/30 21:00:00,"['OG', 'DL', 'MIC', 'PO']",伪,45.809549,126.538607,1899/12/30 9:00:00,150000,哈尔滨华润万象汇店,58854-293141,1
1,哈尔滨市松北区世茂大道99号,哈尔滨,1899/12/30 21:00:00,"['OG', 'DL', 'PO']",伪,45.804734,126.506161,1899/12/30 9:30:00,150000,哈尔滨万达茂咖啡店,51624-278705,1
1,道里区百盛一层友谊路167-217号,哈尔滨,1899/12/30 21:30:00,"['OG', 'DL']",伪,45.77891,126.616727,1899/12/30 8:30:00,150000,哈尔滨百盛店,17605-180984,1
1,哈尔滨道里区中央大街257号,哈尔滨,1899/12/30 21:30:00,"['OG', 'DL', 'PO']",伪,45.778987,126.618011,1899/12/30 9:00:00,150000,哈尔滨英迪格酒店,57393-291453,1
1,道里区None上海街110号汇丽广场D栋,哈尔滨,1899/12/30 21:30:00,"['OG', 'BE', 'DL', 'RC', 'SBB']",伪,45.760063,126.605936,1899/12/30 9:00:00,150000,哈尔滨汇丽广场咖啡店,50283-273905,1
1,群力新区D区1号一二层群力大道1176号,哈尔滨,1899/12/30 21:00:00,"['OG', 'DL']",伪,45.738884,126.557181,1899/12/30 9:30:00,150010,哈尔滨远大群力咖啡店,23061-225404,1
1,哈尔滨市道里区群力大道2399号,哈尔滨,1899/12/30 21:00:00,"['OG', 'DL', 'PO']",伪,45.73683,126.541504,1899/12/30 9:30:00,150000,哈尔滨银泰城咖啡店,60149-294421,1
1,道里区金安购物广场中央大街69号,哈尔滨,1899/12/30 21:00:00,"['OG', 'DL', 'PO']",伪,45.771757,126.620498,1899/12/30 9:30:00,150000,哈尔滨金安广场店,16560-169988,1
1,道里区松雷国际商厦一层中央大街66号,哈尔滨,1899/12/30 21:30:00,"['OG', 'DL']",伪,45.770285,126.619743,1899/12/30 8:00:00,150000,哈尔滨松雷店,16412-169986,1
1,道里区None石头道街118号,哈尔滨,1899/12/30 21:30:00,"['OG', 'DL']",伪,45.770127,126.624774,1899/12/30 8:30:00,150000,哈尔滨新一百店,17681-184965,1
1,道里区王府井购物中心1层1F-029B群力景江东路899号,哈尔滨,1899/12/30 21:30:00,"['OG', 'DL', 'PO']",伪,45.734312,126.566594,1899/12/30 9:30:00,150000,哈尔滨王府井咖啡店,50285-273904,1
1,道里区凯德广场埃德蒙顿地上一层01-05号埃德蒙顿路38号,哈尔滨,1899/12/30 21:00:00,"['OG', 'DL', 'PO']",伪,45.7348,126.593621,1899/12/30 9:00:00,150000,哈尔滨埃德蒙顿凯德店,27417-247257,1
1,哈尔滨市南岗区东大直街320号None秋林大厦一层04单元,哈尔滨,1899/12/30 21:00:00,"['OG', 'DL', 'MIC', 'PO']",伪,45.760038,126.646518,1899/12/30 9:00:00,150000,哈尔滨新锐汇咖啡店,56455-290381,1
1,南岗区凯德广场学府01—08号学府路1号,哈尔滨,1899/12/30 21:30:00,"['OG', 'DL', 'MIC', 'NCB', 'RC']",伪,45.721319,126.609193,1899/12/30 9:00:00,150000,哈尔滨凯德广场学府路店,16759-169987,1
1,哈尔滨市南岗区红博西城红场购物中心一层F1023单元哈西大街299号,哈尔滨,1899/12/30 21:30:00,"['OG', 'DL', 'MIC', 'PO']",伪,45.70279,126.593899,1899/12/30 9:00:00,150000,哈尔滨哈西红博咖啡店,49418-268888,1
1,南岗区万达广场一层1001号中兴大道１６８号,哈尔滨,1899/12/30 21:30:00,"['OG', 'DL']",伪,45.700372,126.590324,1899/12/30 9:30:00,150000,哈尔滨哈西万达咖啡店,20749-207824,1
1,香坊区乐松购物广场一层三大动力路8号,哈尔滨,1899/12/30 21:00:00,"['OG', 'DL']",伪,45.719703,126.648895,1899/12/30 9:00:00,150000,哈尔滨乐松咖啡店,23921-233345,1
1,南岗区None赣水路68号,哈尔滨,1899/12/30 21:00:00,"['OG', 'DL']",伪,45.740409,126.678167,1899/12/30 8:30:00,150000,哈尔滨衡山万达咖啡店,18601-184966,1
1,南岗区地下一层公园大街上二区2-12单元红旗大街301号,哈尔滨,1899/12/30 21:00:00,"['OG', 'PO']",伪,45.757472,126.698663,1899/12/30 9:30:00,150000,哈尔滨红博购物公园店,24697-238404,1
1,南岗区红博一层金座11-1单元哈尔滨市南岗区红旗大街301号,哈尔滨,1899/12/30 21:00:00,"['OG', 'DL']",伪,45.754683,126.699044,1899/12/30 9:00:00,150000,哈尔滨红博会展咖啡店,16216-169990,1
1,牡丹江市西安区None新安街358号万达广场一层,牡丹江市,1899/12/30 21:30:00,"['OG', 'PO']",伪,44.570762,129.601751,1899/12/30 9:30:00,157000,牡丹江万达广场店,58380-292275,1
1,萨尔图区万达广场一层东风路15号,大庆市,1899/12/30 21:30:00,"['OG', 'DL']",伪,46.593831,125.094511,1899/12/30 8:30:00,163000,大庆万达店,23922-233264,1
1,让胡路区None昆仑唐人中心精致楼W101单元,大庆市,1899/12/30 21:00:00,"['OG', 'DL']",伪,46.63582,124.88564,1899/12/30 8:30:00,163000,大庆昆仑唐人店,24352-235271,1
1,大庆市让胡路区中央南大街和大港路交汇处,大庆市,1899/12/30 21:00:00,"['OG', 'DL', 'MIC', 'PO']",伪,46.624522,124.869286,1899/12/30 9:00:00,163000,大庆让胡路万达广场店,59670-293933,1
1,延吉市延吉百利城购物中心光明街688号,延吉,1899/12/30 22:00:00,"['OG', 'MIC', 'PO']",伪,42.907486,129.512207,1899/12/30 9:00:00,133000,延吉百利城店,48978-266169,1
1,昌邑区None重庆路1367号,吉林市,1899/12/30 22:00:00,"['OG', 'MIC']",伪,43.84851,126.566759,1899/12/30 9:00:00,132000,吉林财富广场店,23856-232431,1
1,昌邑区A-21单元和地上二层A-18单元解放路6号欧亚商都地上一层,吉林市,1899/12/30 21:00:00,['OG'],伪,43.850764,126.588288,1899/12/30 9:00:00,132000,吉林欧亚商都店,25518-241004,1
1,昌邑区昌邑万达一层吉林市昌邑区吉林大街518号,吉林市,1899/12/30 21:30:00,['OG'],伪,43.884815,126.56598,1899/12/30 9:30:00,132000,吉林昌邑万达广场店,51803-279165,1
1,长春市净月开发区永顺路388号,长春市,1899/12/30 21:00:00,"['OG', 'MIC', 'PO']",伪,43.769324,125.447039,1899/12/30 10:00:00,130000,长春赛特奥特莱斯门店,57425-291541,1
1,净月开发区B-1单元及B-2单元博学路1555号2#购物广场一层,长春市,1899/12/30 21:30:00,['OG'],伪,43.820705,125.41821,1899/12/30 8:30:00,130000,长春迅驰广场店,24379-236044,1
1,经开区净月大街与新城大街交汇世纪广场旁万豪广场1层星巴克,长春市,1899/12/30 21:00:00,"['OG', 'MIC', 'PO']",伪,43.838934,125.405797,1899/12/30 8:30:00,130000,长春万豪广场门店,57712-290804,1
1,南关区地上一层101号和128号南环城路与临河街交汇南街300米,长春市,1899/12/30 21:30:00,"['OG', 'MIC']",伪,43.813676,125.364878,1899/12/30 8:30:00,130000,长春中海国际广场店,50587-275024,1
1,南关区一层B185单元及二层B203单元亚泰大街1138号,长春市,1899/12/30 21:00:00,"['OG', 'MIC']",伪,43.899038,125.344519,1899/12/30 9:00:00,130000,长春中东新天地店,19934-183627,1
1,重庆路88号None活力城1层,长春市,1899/12/30 21:00:00,"['OG', 'MIC', 'PO']",伪,43.891524,125.333646,1899/12/30 10:00:00,130000,长春活力城咖啡店,29272-252967,1
1,南关区亚泰富苑一、二层西北角重庆路618号,长春市,1899/12/30 21:30:00,['OG'],伪,43.891004,125.32682,1899/12/30 8:00:00,130000,长春亚泰富苑店,20305-204206,1
1,朝阳区百货大楼一层、二层人民大街1881号,长春市,1899/12/30 21:00:00,['OG'],伪,43.89168,125.323926,1899/12/30 8:00:00,130000,长春百货大楼店,18807-195233,1
1,朝阳区一层、二层同志街2288号,长春市,1899/12/30 22:00:00,"['OG', 'MIC']",伪,43.868553,125.318595,1899/12/30 7:30:00,130000,长春中东桂林路店,20199-203944,1
1,朝阳区长春新世纪泓源广场西安大路8号,长春市,1899/12/30 22:00:00,"['OG', 'MIC']",伪,43.888573,125.31883,1899/12/30 7:30:00,130001,长春世纪鸿源店,18080-183625,1
1,宽城区宽城万达广场一层1001号铺位北人民大街以西、铁北二路以北,长春市,1899/12/30 21:30:00,['OG'],伪,43.914167,125.319802,1899/12/30 9:30:00,130000,长春宽城万达店,19590-198304,1
1,朝阳区欧亚新生活一层长春市朝阳区工农大路1899号,长春市,1899/12/30 22:00:00,"['OG', 'MIC']",伪,43.864697,125.306059,1899/12/30 9:00:00,130000,长春欧亚新生活店,50588-275025,1
1,沈河区None哈尔滨路118号,沈阳市,1899/12/30 21:30:00,"['OG', 'DL', 'NCB']",伪,41.813697,123.432347,1899/12/30 7:30:00,110000,沈阳华府天地店,1517-134033,1
1,和平区华府新天地购物中心一层哈尔滨路168号,沈阳市,1899/12/30 21:00:00,"['OG', 'DL']",伪,41.813086,123.437775,1899/12/30 8:00:00,110000,沈阳华府新天地分店,18802-193492,1
1,沈阳市北站路61号沈阳财富中心E座第一层,沈阳市,1899/12/30 21:00:00,"['OG', 'DL', 'PO']",伪,41.814687,123.434439,1899/12/30 7:30:00,110000,沈阳市财富中心店,58570-292783,1
1,沈河区火车北站2层A3与A4检票口中间北站路102号,沈阳市,1899/12/30 21:00:00,"['OG', 'MIC']",伪,41.818701,123.436267,1899/12/30 7:00:00,110000,沈阳北站店,49383-267090,1
1,沈河区地下一层B131号中街路128号,沈阳市,1899/12/30 21:30:00,"['OG', 'MIC']",伪,41.802214,123.455331,1899/12/30 10:00:00,110000,沈阳中街恒隆店,1530-134032,1
1,和平区沈阳城市广场206号一层南京北街,沈阳市,1899/12/30 21:00:00,"['OG', 'DL', 'MIC']",伪,41.794617,123.408432,1899/12/30 7:00:00,110000,沈阳中山广场店,30856-102126,1
1,沈河区None中街路205号0101馆一层,沈阳市,1899/12/30 21:30:00,"['OG', 'DL', 'PO']",伪,41.801197,123.461706,1899/12/30 8:00:00,110000,沈阳中街店,31212-104933,1
1,沈阳市皇姑区长江街99号北航千盛百货一层,沈阳市,1899/12/30 21:00:00,"['OG', 'DL', 'PO']",伪,41.826152,123.413635,1899/12/30 8:30:00,110000,沈阳北行千盛店,57493-291611,1
1,大东区新玛特商场小东路2号,沈阳市,1899/12/30 21:30:00,"['OG', 'DL']",伪,41.802077,123.464875,1899/12/30 9:30:00,110000,沈阳中街新玛特店,22682-219985,1
1,大东区沈阳大悦城B座B101号小东路5号,沈阳市,1899/12/30 22:00:00,"['OG', 'DL', 'NCB', 'RC', 'SBB']",伪,41.801603,123.466074,1899/12/30 8:30:00,110000,沈阳大悦城店,3888-136815,1
1,和平区中兴大厦一层太原北街86号,沈阳市,1899/12/30 22:00:00,"['OG', 'BE', 'DL', 'MIC', 'NCB', 'RC', 'SBB']",伪,41.79243,123.400632,1899/12/30 8:00:00,110000,沈阳中兴店,31948-117366,1
1,和平区百盛购物广场一层L1-5单元中华路21号,沈阳市,1899/12/30 21:30:00,"['OG', 'DL', 'MIC']",伪,41.791861,123.399901,1899/12/30 9:00:00,110000,沈阳太原街百盛分店,19679-201606,1
1,和平区1层LN105号文艺路11号甲沈阳华润中心万象城三期,沈阳市,1899/12/30 22:00:00,"['OG', 'DL', 'MIC', 'PO']",伪,41.777834,123.433513,1899/12/30 7:30:00,110000,沈阳文艺路店,27784-247745,1
1,和平区万达广场室内步行街地面一层112号铺位太原南街2号,沈阳市,1899/12/30 21:30:00,"['OG', 'DL', 'MIC']",伪,41.79138,123.398726,1899/12/30 9:00:00,110000,沈阳太原街万达店,19145-198984,1
1,皇姑区None黄河南大街78号,沈阳市,1899/12/30 21:30:00,"['OG', 'DL', 'MIC', 'PO']",伪,41.835089,123.419499,1899/12/30 7:00:00,110000,沈阳乐购店,16579-173104,1
1,沈阳市青年大街123号嘉里中心115单元,沈阳市,1899/12/30 21:30:00,"['OG', 'DL', 'MIC', 'PO', 'SBB']",伪,41.775242,123.437229,1899/12/30 8:00:00,110000,沈阳嘉里中心店,56967-290948,1
1,和平区沈阳万象城负一层B105青年大街288号,沈阳市,1899/12/30 22:00:00,"['OG', 'MIC', 'NCB', 'RC']",伪,41.77501,123.434729,1899/12/30 8:00:00,110000,沈阳万象城店,1519-134036,1
1,铁西区一层1035号北一中路1号,沈阳市,1899/12/30 21:30:00,"['OG', 'DL', 'MIC']",伪,41.813517,123.380955,1899/12/30 8:00:00,110000,沈阳北一路万达分店,17685-184964,1
1,沈阳市和平区三好街78号东软电脑城C座,沈阳市,1899/12/30 21:00:00,"['OG', 'DL', 'MIC', 'PO']",伪,41.767007,123.427153,1899/12/30 7:30:00,110000,沈阳东软电脑城店,59975-294246,1
1,铁西区星摩尔零售商区一层GD-01单元北二中路6号,沈阳市,1899/12/30 21:30:00,"['OG', 'DL', 'MIC', 'PO']",伪,41.80874,123.376381,1899/12/30 9:00:00,110000,沈阳星摩尔店,16272-154648,1
1,沈河区一层L127单元青年大街185号,沈阳市,1899/12/30 21:00:00,"['OG', 'DL', 'MIC']",伪,41.764396,123.43617,1899/12/30 7:30:00,110000,沈阳茂业金廊店,3663-145744,1
1,铁西区华润铁西万象汇185商铺建设东路158号,沈阳市,1899/12/30 21:30:00,"['OG', 'BE', 'DL', 'MIC', 'NCB', 'RC', 'SBB']",伪,41.795799,123.372527,1899/12/30 8:00:00,110000,沈阳铁西广场店,27946-248804,1
1,铁西区None沈阳华润置地广场万象汇L5层505号商铺,沈阳市,1899/12/30 21:30:00,"['OG', 'MIC']",伪,41.795152,123.372699,1899/12/30 9:00:00,110000,沈阳铁西万象汇3店,54887-288623,1
1,皇姑区甲一层122、123铺位塔湾街11号,沈阳市,1899/12/30 21:00:00,"['OG', 'DL']",伪,41.825954,123.376875,1899/12/30 7:00:00,110000,沈阳中海环宇城店,20989-204205,1
1,皇姑区一层9107号黄河北大街56-41号9号,沈阳市,1899/12/30 21:30:00,"['OG', 'DL', 'MIC']",伪,41.856336,123.417501,1899/12/30 7:30:00,110000,沈阳中粮广场店,50492-271026,1
1,沈阳市和平区博览路2甲1号L1层,沈阳市,1899/12/30 21:30:00,"['OG', 'DL', 'MIC', 'PO']",伪,41.751905,123.43719,1899/12/30 10:00:00,110000,沈阳新世界K11店,60152-294422,1
1,铁西区万达广场一层156单元兴华南街58-20号,沈阳市,1899/12/30 21:30:00,"['OG', 'DL', 'MIC']",伪,41.780959,123.359256,1899/12/30 7:30:00,110000,沈阳万达店,3887-151624,1
1,和平区一层1023号南京南街201号,沈阳市,1899/12/30 21:30:00,"['OG', 'DL']",伪,41.745458,123.402465,1899/12/30 8:00:00,110000,沈阳长白大润发店,19094-196156,1
1,铁西区2号建设西路,沈阳市,1899/12/30 21:30:00,"['OG', 'DL', 'MIC', 'PO']",伪,41.803875,123.345163,1899/12/30 8:00:00,110000,沈阳铁西兴隆大都汇分店,53337-284567,1
1,浑南新区兴隆大奥莱一层B1-15营盘街5号,沈阳市,1899/12/30 22:00:00,"['OG', 'DL', 'MIC', 'PO']",伪,41.742466,123.456181,1899/12/30 9:00:00,110000,沈阳浑南兴隆奥莱店,48241-253867,1
1,沈阳市浑南区浑南西路8号万象生活城一层,沈阳市,1899/12/30 21:30:00,"['OG', 'DL', 'PO']",伪,41.737384,123.451459,1899/12/30 8:00:00,110000,沈阳万象生活城店,56760-290699,1
1,东陵区一层1037B营盘西街17号,沈阳市,1899/12/30 22:00:00,"['OG', 'DL', 'MIC', 'PO']",伪,41.734497,123.459121,1899/12/30 7:30:00,110000,沈阳浑南万达店,19678-202384,1
1,沈阳市和平区长白南路232号鹿特丹110,沈阳市,1899/12/30 22:00:00,"['OG', 'DL', 'PO']",伪,41.728432,123.397155,1899/12/30 8:00:00,110000,沈阳长白万科鹿特丹店,56116-290047,1
1,沈北新区道义南大街33号一层1F-01号单元沈阳市沈北新区,沈阳市,1899/12/30 21:00:00,"['OG', 'DL', 'PO']",伪,41.921254,123.400443,1899/12/30 8:30:00,110000,沈阳积家购物中心店,54122-286378,1
1,东陵区赛特奥莱一层A2-110单元双园路36号,沈阳市,1899/12/30 20:00:00,"['OG', 'MIC']",伪,41.844452,123.621249,1899/12/30 10:00:00,110000,沈阳赛特奥莱店,16721-174864,1
1,东陵区T3航站楼二层出发层国内隔离区桃仙镇桃仙国际机场,沈阳市,1899/12/30 21:00:00,['OG'],伪,41.633286,123.493179,1899/12/30 7:30:00,110000,沈阳桃仙机场店,18846-195666,1
1,沈阳市浑南区机场路199-1号沈阳桃仙国际机场T3航站楼一层到达区CY-14,沈阳市,1899/12/30 21:00:00,"['OG', 'MIC']",伪,41.63283,123.499117,1899/12/30 7:30:00,110000,沈阳桃仙机场到达门店,55791-289698,1
1,新抚区万达商业广场一层1038号铺位浑河南路中段56号、56-1号，56-2号,抚顺市,1899/12/30 22:00:00,"['OG', 'MIC']",伪,41.86471,123.902449,1899/12/30 8:00:00,113000,抚顺万达店,20302-204304,1
1,白塔区None新运大街万达广场1层,辽阳市,1899/12/30 21:00:00,"['OG', 'DL', 'MIC', 'PO']",伪,41.258967,123.209559,1899/12/30 9:00:00,111000,辽阳万达广场店,52781-282732,1
1,辽宁省本溪市平山区平山路与勇山街交汇处None东南角万达广场一层,本溪市,1899/12/30 21:30:00,"['OG', 'PO']",伪,41.289888,123.780599,1899/12/30 9:30:00,117000,本溪万达广场星巴克店,57014-291020,1
1,鞍山市立山区千山中路278甲号None万达购物广场一层星巴克店,鞍山市,1899/12/30 21:30:00,"['OG', 'MIC', 'PO']",伪,41.107061,123.057872,1899/12/30 8:30:00,114000,鞍山万达广场门店,59466-293713,1
1,铁东区百盛广场一楼二道街88号,鞍山市,1899/12/30 21:00:00,['OG'],伪,41.114472,122.991285,1899/12/30 8:30:00,114000,鞍山百盛店,19526-198725,1
1,铁东区新玛特商场一层胜利南街42号,鞍山市,1899/12/30 21:00:00,"['OG', 'PO']",伪,41.110713,122.996134,1899/12/30 8:00:00,114000,鞍山新玛特分店,19601-198726,1
1,铁东区乐都汇L1F022单元建国南路48号,鞍山市,1899/12/30 21:00:00,"['OG', 'MIC', 'PO']",伪,41.10874,122.984124,1899/12/30 8:30:00,114000,鞍山万象汇店,19677-201607,1
1,城西区国芳百货1F五四大街,西宁市,1899/12/30 23:00:00,"['OG', 'DL']",伪,36.628008,101.760189,1899/12/30 7:30:00,810000,西宁新宁国芳百货,26084-241628,1
1,城西区力盟商业巷5号楼1F五四大街41号,西宁市,1899/12/30 23:00:00,"['OG', 'DL', 'MIC']",伪,36.629856,101.758665,1899/12/30 8:00:00,810000,西宁力盟商业巷店,26085-241627,1
1,海湖新区海湖万达一层海湖万达购物中心,西宁市,1899/12/30 22:30:00,"['OG', 'DL', 'MIC']",伪,36.643006,101.716344,1899/12/30 7:30:00,810000,西宁海湖万达店,47231-255727,1
1,江苏省南通市海门文峰大世界一楼A23号铺位海门市长江路608号,南通市,1899/12/30 22:00:00,"['OG', 'PO']",伪,31.889519,121.185937,1899/12/30 7:30:00,226000,南通海门文峰大世界店,29102-252504,1
1,"No.369,M. Jiefang RdHaimen",Nantong,1899/12/30 22:30:00,"['OG', 'DL', 'MIC', 'NCB', 'PO']",伪,31.895274,121.182121,1899/12/30 7:00:00,226000,海门大东方百货店,16163-168925,1
1,江苏省南通市None海门市长江南路99号1楼1001单元,南通市,1899/12/30 22:00:00,"['OG', 'PO']",伪,31.880225,121.185093,1899/12/30 8:30:00,226000,南通海门龙信广场店,54129-286382,1
1,江苏省海门市None张謇大道179号一层L1032单元,南通市,1899/12/30 22:00:00,"['OG', 'PO']",伪,31.877458,121.174993,1899/12/30 8:00:00,226000,南通海门中南城店,48586-263487,1
1,江苏省南通市None海门市江海路115号,南通市,1899/12/30 22:00:00,"['OG', 'PO']",伪,31.893824,121.16537,1899/12/30 8:00:00,226000,南通海门文峰广场店,26318-244085,1
1,江苏省南通市None南通农场999号苏通大桥东服务区D7-D9号,南通市,1899/12/30 22:00:00,"['OG', 'MIC']",伪,31.866938,120.992723,1899/12/30 7:30:00,226000,G15苏通大桥服务区东区,48841-265525,1
1,江苏省南通市None南通农场999号苏通大桥西服务区D7-D9号,南通市,1899/12/30 22:00:00,['OG'],伪,31.868699,120.991401,1899/12/30 7:30:00,226000,G15苏通大桥服务区西区,48842-265526,1
1,江苏省南通市None通州区朝霞东路198号1层1011号商铺,南通市,1899/12/30 22:00:00,"['OG', 'DL', 'PO']",伪,32.06437,121.089561,1899/12/30 7:30:00,226000,南通通州万达店,53294-284566,1
1,江苏省南通市None星湖大道1066号一层112号商铺,南通市,1899/12/30 22:00:00,"['OG', 'DL', 'PO']",伪,31.923908,120.961879,1899/12/30 9:30:00,226000,南通永旺梦乐城店,52145-280604,1
1,开发区None新东路101号世茂广场一层1010单元,南通市,1899/12/30 22:00:00,"['OG', 'DL']",伪,31.92129,120.951799,1899/12/30 7:00:00,226000,南通世茂广场店,24885-239024,1
1,江苏省南通市None开发区星湖大道1101号2幢118室02单元,南通市,1899/12/30 22:00:00,"['OG', 'DL', 'PO']",伪,31.922255,120.942615,1899/12/30 8:00:00,226000,南通星湖101广场店,49065-266945,1
1,通州区None建设路76号,南通市,1899/12/30 22:00:00,"['OG', 'DL']",伪,32.086498,121.074776,1899/12/30 7:30:00,226000,南通通州文峰大世界店,22953-226384,1
1,江苏省南通市None崇川区桃园路10号中南百货L1-001、002号商铺,南通市,1899/12/30 22:00:00,"['OG', 'DL']",伪,31.969859,120.895703,1899/12/30 7:30:00,226000,南通中南百货店,48303-262905,1
1,江苏省南通市None崇川区新城区支路6号凤凰文化广一层1F-1号铺位,南通市,1899/12/30 22:00:00,"['OG', 'DL', 'PO']",伪,31.975377,120.897221,1899/12/30 7:00:00,226000,南通凤凰文化广场店,23102-226304,1
1,崇川区南通中南城桃园路12号,南通市,1899/12/30 22:30:00,"['OG', 'DL', 'MIC', 'NCB', 'PO']",伪,31.968687,120.892876,1899/12/30 7:30:00,226000,南通中南城店,16077-157090,1
1,Jiangnan avenueChangshu,苏州市,1899/12/30 22:00:00,"['OG', 'DL', 'MIC', 'PO']",伪,31.74285,120.932686,1899/12/30 6:30:00,215000,苏州常熟江南印象店,48617-264204,1
1,崇川区南通星光耀广场工农路100号星光耀广场2号楼B101铺位,南通市,1899/12/30 22:00:00,"['OG', 'DL']",伪,31.967143,120.890545,1899/12/30 7:00:00,226000,南通星光耀店,24903-239025,1
1,江苏省苏州市苏州太仓滨江广场一幢第一层的112单元太仓市港区龙江路 299 号,苏州市,1899/12/30 21:00:00,"['OG', 'DL', 'PO']",伪,31.616314,121.20893,1899/12/30 8:00:00,215000,苏州太仓滨江广场店,53681-285953,1
1,江苏省南通市None工农南路155号1楼L1-48\L1-49号商铺,南通市,1899/12/30 22:00:00,"['OG', 'DL', 'PO']",伪,31.985427,120.888371,1899/12/30 7:30:00,226000,南通印象城1F店,52146-280605,1
1,江苏省南通市None工农南路155号3楼L3-14/L3-15a号商铺,南通市,1899/12/30 22:00:00,"['OG', 'DL']",伪,31.986945,120.888138,1899/12/30 10:00:00,226000,南通印象城3F店,53650-284964,1
1,崇川区南通文峰城市广场虹桥路1号A区一层1001单元，二层2001单元,南通市,1899/12/30 22:00:00,"['OG', 'DL', 'MIC', 'RC']",伪,31.997188,120.88425,1899/12/30 6:30:00,226000,南通文峰城市广场店,26609-244644,1
1,崇川区南通金鹰圆融购物中心工农路57号南通金鹰圆融购物中心1F1、1F2铺位,南通市,1899/12/30 22:30:00,"['OG', 'DL', 'MIC']",伪,32.005915,120.884362,1899/12/30 7:30:00,226000,南通金鹰圆融店,23440-230167,1
1,江苏省南通市南通圆融广场一层123#二层215-B#铺位崇川区工农路57号,南通市,1899/12/30 22:00:00,"['OG', 'DL']",伪,32.005545,120.88355,1899/12/30 7:30:00,226000,南通圆融广场店,24820-208747,1
1,江苏省南通市None崇川区人民中路106号,南通市,1899/12/30 22:00:00,"['OG', 'DL', 'PO']",伪,32.017261,120.867859,1899/12/30 7:00:00,226000,南通人民路金鹰店,48608-264144,1
1,崇川区文峰大世界南大街3-5号,南通市,1899/12/30 22:00:00,"['OG', 'DL']",伪,32.015251,120.865852,1899/12/30 7:00:00,226000,南通文峰大世界店,15021-157089,1
1,崇川区南通八佰伴1楼1-1铺位人民中路47号,南通市,,"['OG', 'MIC']",伪,32.017261,120.865899,,226000,南通八佰伴店,21672-214011,1
1,江苏省南通市None崇川区濠北路529号A座一楼A1062铺位,南通市,1899/12/30 22:00:00,"['OG', 'DL', 'PO']",伪,32.024149,120.855221,1899/12/30 7:30:00,226000,南通邦豪时尚广场店,47421-258109,1
1,No.206 Ba Yi RoadChongming district,Shanghai,1899/12/30 22:00:00,['OG'],伪,31.620879,121.396525,1899/12/30 8:00:00,200000,崇明八一广场店,18847-195964,1
1,江苏省南通市None港闸区北大街2号南通华强广场1F，F01-04号,南通市,1899/12/30 22:00:00,"['OG', 'DL']",伪,32.042576,120.860847,1899/12/30 9:00:00,226000,南通华强广场店,27990-249439,1
1,港闸区北大街108号None万科金域广场1层108单元,南通市,1899/12/30 22:00:00,"['OG', 'DL']",伪,32.049273,120.861051,1899/12/30 7:30:00,226000,南通万科广场店,27989-249440,1
1,江苏省南通市None港闸区北大街111号1楼L174号商铺,南通市,1899/12/30 22:00:00,"['OG', 'DL', 'MIC', 'NCB', 'RC', 'SBB']",伪,32.049037,120.85979,1899/12/30 8:00:00,226100,南通万象城1F店,56738-290676,1
1,江苏省南通市None港闸区北大街111号1楼L511号商铺,南通市,1899/12/30 22:00:00,['OG'],伪,32.050589,120.859769,1899/12/30 10:00:00,226000,南通万象城5F店,55476-289357,1
1,港闸区长平路9号1层1033号,南通市,1899/12/30 22:00:00,"['OG', 'DL', 'MIC']",伪,32.037128,120.834109,1899/12/30 7:30:00,226000,南通万达广场店,27991-249438,1
1,启东启东环球大厦江海中路606号,南通市,1899/12/30 22:00:00,"['OG', 'DL']",伪,31.809301,121.657611,1899/12/30 7:30:00,226000,启东环球大厦店,17785-183609,1
1,江苏省南通市None启东市人民中路650号一层,南通市,1899/12/30 22:00:00,"['OG', 'DL', 'PO']",伪,31.810318,121.65837,1899/12/30 8:00:00,226000,南通启东文峰大世界店,49971-272128,1
1,江苏省南通市一层单元1029启东市汇龙镇建设南路88号,南通市,1899/12/30 22:00:00,"['OG', 'DL']",伪,31.787884,121.661827,1899/12/30 8:00:00,226000,南通启东吾悦广场店,56432-289355,1
1,启东市东方维也纳人民中路400号,南通市,1899/12/30 22:00:00,"['OG', 'DL']",伪,31.804884,121.668766,1899/12/30 7:30:00,226000,启东东方维也纳店,18075-183608,1
1,江苏省南通市None如东县青园北路19号一层,南通市,1899/12/30 22:00:00,"['OG', 'DL', 'MIC', 'NCB', 'PO']",伪,32.311917,121.184737,1899/12/30 7:30:00,226000,南通如东文峰大世界店,49404-268987,1
1,闽江东路9号星光天地购物中心1楼06单元None常熟星光天地购物中心,苏州市,1899/12/30 22:30:00,"['OG', 'DL']",伪,31.666764,120.776196,1899/12/30 7:30:00,215000,苏州常熟星光天地店,27331-247262,1
1,城厢镇万达广场1层1023铺位上海东路188号,苏州市,1899/12/30 22:00:00,"['OG', 'DL', 'MIC', 'PO']",伪,31.459974,121.13926,1899/12/30 7:30:00,215000,太仓万达广场店,18526-187327,1
1,海虞北路35号,苏州市,1899/12/30 22:30:00,"['OG', 'DL', 'MIC']",伪,31.671125,120.754566,1899/12/30 6:30:00,215000,常熟美城广场店,20916-208748,1
1,江苏省苏州市None太仓市城厢镇上海东路77号2幢101室,苏州市,1899/12/30 21:30:00,"['OG', 'DL', 'PO']",伪,31.450801,121.125343,1899/12/30 6:30:00,215000,苏州太仓五洋广场店,49258-267909,1
1,工业园区常熟格瑞印象城购物中心1040室海虞南路88号,苏州市,1899/12/30 22:30:00,"['OG', 'DL']",伪,31.649149,120.757958,1899/12/30 8:00:00,215000,常熟西蒙印象城店,32702-134930,1
1,江苏省苏州市None常熟市珠海路8号1001单元,苏州市,1899/12/30 22:00:00,"['OG', 'DL', 'PO']",伪,31.685187,120.732149,1899/12/30 8:00:00,215000,苏州常熟万达广场店,51661-278864,1
1,虞山镇华地百货方塔东街9号楼1-1,苏州市,1899/12/30 22:00:00,"['OG', 'DL']",伪,31.643552,120.757015,1899/12/30 7:30:00,215000,常熟华地店,18168-188304,1
1,城厢镇太仓华旭财富中心人民路95号,苏州市,1899/12/30 22:00:00,"['OG', 'DL', 'MIC', 'PO']",伪,31.446095,121.108543,1899/12/30 7:00:00,215000,太仓华旭财富中心店,15377-160113,1
1,江苏省苏州市None常熟市塔弄街33号9栋3、4单元,苏州市,1899/12/30 21:00:00,"['OG', 'DL', 'PO']",伪,31.644833,120.747448,1899/12/30 8:00:00,215000,苏州常熟方塔街店,48862-265746,1
1,江苏省苏州市None常熟市东南大道101号101单元,苏州市,1899/12/30 22:00:00,"['OG', 'DL', 'MIC']",伪,31.598887,120.787165,1899/12/30 7:00:00,215000,苏州常熟东南邻里中心店,48872-265748,1
1,北门大街虞景文华商业广场19幢-119-1,苏州市,1899/12/30 22:00:00,"['OG', 'DL']",伪,31.651206,120.740178,1899/12/30 8:00:00,215000,常熟虞景文华店,22930-226246,1
1,城厢镇南郊海运堤路86-4号,苏州市,1899/12/30 22:00:00,"['OG', 'DL']",伪,31.435924,121.122905,1899/12/30 7:30:00,215000,太仓海运堤店,24618-238347,1
1,江苏省苏州市常熟东南大道168号,苏州市,1899/12/30 22:00:00,"['OG', 'DL']",伪,31.60038,120.778074,1899/12/30 10:00:00,215000,苏州常熟永旺店,59418-293679,1
1,白雪路7号捞品城None1楼1001单元星巴克,苏州市,1899/12/30 22:00:00,"['OG', 'DL', 'MIC']",伪,31.62967,120.746738,1899/12/30 7:30:00,215000,常熟捞品城店,22631-222505,1
1,江苏省苏州市M141-M143单元张家港市锦丰镇锦店路99号,苏州市,1899/12/30 22:00:00,"['OG', 'DL']",伪,31.96032,120.638597,1899/12/30 8:00:00,215000,苏州张家港五月花广场店,55789-289624,1
1,上海市嘉定区环城路762弄1号,上海,1899/12/30 22:00:00,"['OG', 'DL', 'PO']",伪,31.397641,121.247911,1899/12/30 7:00:00,200000,上海嘉定信业购物中心,59766-294108,1
1,嘉定区城北路358号1层15单元None城北路358号1层15单元,上海,1899/12/30 22:00:00,"['OG', 'DL']",伪,31.390531,121.237405,1899/12/30 7:00:00,200000,嘉定日月光店,48772-265078,1
1,宝山区世纪联华1F 7894F01001单元罗芬路1088号,上海,1899/12/30 22:00:00,"['OG', 'DL', 'MIC']",伪,31.402251,121.350569,1899/12/30 7:00:00,200000,美兰湖店,24211-225265,1
1,"CNo.138,ChengZhong Rd.",Shanghai,1899/12/30 22:00:00,"['OG', 'DL', 'MIC']",伪,31.384432,121.245575,1899/12/30 7:00:00,200000,嘉定罗宾森店,31690-101042,1
1,江苏省苏州市None昆山市青阳北路218号一层1001号商铺,苏州市,1899/12/30 22:30:00,"['OG', 'DL', 'PO']",伪,31.412294,120.99263,1899/12/30 7:30:00,215000,苏州昆山万达广场店,51477-278393,1
1,嘉定区疁城国际塔城路295号,上海,1899/12/30 22:00:00,"['OG', 'DL']",伪,31.383686,121.256167,1899/12/30 7:00:00,200000,嘉定疁城国际店,19928-203185,1
1,上海市嘉定区None澄浏中路3090号1层006室,上海,1899/12/30 22:00:00,"['OG', 'DL', 'PO']",伪,31.385133,121.278789,1899/12/30 7:00:00,200000,嘉定百联店,47545-258565,1
1,上海市宝山区None美健路829号一楼星巴克,上海,1899/12/30 22:00:00,"['OG', 'DL']",伪,31.390458,121.336355,1899/12/30 7:00:00,200000,宝山U天地店,58042-292160,1
1,上海市宝山区M1-1F-060、061、067单元杨南路2211号第一层,上海,1899/12/30 22:00:00,"['OG', 'DL', 'MIC', 'NCB']",伪,31.388154,121.358281,1899/12/30 7:00:00,200000,宝山宝龙广场店,28421-250424,1
1,江苏省昆山市1层7、17、57号铺位萧林东路5018号中楠都汇广场2号楼,苏州市,1899/12/30 21:00:00,"['OG', 'DL', 'PO']",伪,31.403156,120.979262,1899/12/30 7:30:00,215000,苏州昆山中楠都汇广场店,28952-247285,1
1,开发区None前进东路223号,苏州市,1899/12/30 22:00:00,"['OG', 'DL']",伪,31.383505,121.051735,1899/12/30 6:30:00,215000,昆山世茂广场店,23547-231005,1
1,江苏省苏州昆山市None周市镇春晖路望族商城9号楼1F023单元,苏州市,1899/12/30 18:30:00,"['OG', 'DL', 'PO']",伪,31.397952,120.983057,1899/12/30 8:30:00,215000,苏州昆山春晖路店,49872-271627,1
1,昆山市萧林中路666号None九方城一楼1-025室,苏州市,1899/12/30 22:30:00,"['OG', 'DL']",伪,31.405121,120.956595,1899/12/30 7:00:00,215000,苏州昆山九方城店,26384-223007,1
1,江苏省苏州市None张家港市杨舍镇人民东路20号,苏州市,1899/12/30 22:00:00,"['OG', 'DL']",伪,31.870281,120.575012,1899/12/30 8:00:00,215000,苏州张家港万达广场店,57424-291537,1
1,上海市嘉定区None洪德路300号、302号,上海,1899/12/30 22:00:00,"['OG', 'DL', 'MIC', 'PO']",伪,31.357155,121.2587,1899/12/30 7:00:00,200000,嘉定西云楼店,55250-289108,1
1,江苏省苏州市None昆山市开发区青阳中路5号,苏州市,1899/12/30 20:00:00,"['OG', 'DL']",伪,31.379264,120.996658,1899/12/30 7:00:00,215000,苏州昆山一院友谊分院店,54987-288783,1
1,嘉定区None白银路288弄20棟19号107室,上海,1899/12/30 22:00:00,"['OG', 'DL']",伪,31.353146,121.260505,1899/12/30 7:00:00,200000,嘉定台北风情街店,27987-249465,1
1,江苏省苏州市None张家港市锦绣邻里坊1号,苏州市,1899/12/30 21:00:00,"['OG', 'PO']",伪,31.885832,120.559035,1899/12/30 8:30:00,215000,苏州张家港沙洲湖步行街,54066-286312,1
1,"B1,No.88,N.Heilongjiang Rd",苏州,1899/12/30 21:00:00,"['OG', 'DL']",伪,31.38109,120.98201,1899/12/30 7:00:00,215000,昆山中央公园店,35033-93416,1
1,江苏省苏州市大渔商业广场B01a单元昆山市杜克大道505号,苏州市,1899/12/30 21:00:00,['OG'],伪,31.412628,120.897072,1899/12/30 8:00:00,215000,苏州昆山大渔商业广场店,53842-286073,1
1,宝山区None牡丹江路1738号,上海,1899/12/30 22:00:00,"['OG', 'DL']",伪,31.404754,121.481948,1899/12/30 7:00:00,,宝钢商场店,22740-224066,1
1,上海市嘉定区嘉定区阿克苏路1099号1F-409单元,上海,1899/12/30 22:00:00,"['OG', 'DL', 'MIC']",伪,31.346831,121.260872,1899/12/30 7:00:00,200000,嘉定宝龙商业广场店,49160-267364,1
1,江苏省苏州市None昆山市马鞍山东路88-1号,苏州市,1899/12/30 20:00:00,['OG'],伪,31.387625,120.94728,1899/12/30 8:00:00,215000,苏州昆山亭林公园店,53841-286075,1
1,宝山区936号、938号、940号-1单元菊盛路,上海,1899/12/30 20:00:00,"['OG', 'DL']",伪,31.362496,121.368503,1899/12/30 7:00:00,200000,菊盛路店,27207-246825,1
1,"No.99,Renmin Rd",苏州,1899/12/30 22:30:00,"['OG', 'DL', 'MIC']",伪,31.382263,120.957386,1899/12/30 6:30:00,215000,昆山人民路店,31123-104243,1
1,上海市宝山区None丹霞山路50弄1号,上海,1899/12/30 22:00:00,"['OG', 'DL', 'MIC', 'NCB', 'PO']",伪,31.360231,121.362462,1899/12/30 7:00:00,201907,龙湖宝山天街店,53031-283986,1
1,江苏省苏州市None张家港市人民路42号2幢1楼,苏州市,1899/12/30 22:00:00,"['OG', 'DL', 'MIC', 'PO']",伪,31.87752,120.549628,1899/12/30 7:00:00,215000,苏州张家港国贸酒店店,47418-258224,1
1,上海市None牡丹江路1569号F1层F127铺位,上海,1899/12/30 22:00:00,"['OG', 'DL', 'MIC']",伪,31.399111,121.485674,1899/12/30 7:00:00,200000,宝乐汇店,25485-226668,1
1,珠江中路199号一层1-01铺位昆山金鹰国际购物中心,苏州市,1899/12/30 22:00:00,"['OG', 'DL', 'MIC']",伪,31.376233,120.973582,1899/12/30 7:00:00,215000,昆山金鹰店,23442-230166,1
1,宝山区上海吴淞口国际邮轮港宝杨路1号客运大楼1F,上海,1899/12/30 16:00:00,['OG'],伪,31.409128,121.508663,1899/12/30 8:00:00,200000,吴淞口国际邮轮港店,26612-244746,1
1,江苏省苏州市None昆山市珠江中路199号,苏州市,1899/12/30 18:30:00,"['OG', 'DL', 'PO']",伪,31.376026,120.972587,1899/12/30 7:30:00,215000,苏州昆山金鹰尚美酒店店,52802-283164,1
1,玉山镇世贸广场昆山时尚百盛L1-25铺位前进西路,苏州市,1899/12/30 20:00:00,"['OG', 'DL']",伪,31.382092,120.954205,1899/12/30 8:00:00,215000,昆山百盛店,16076-166324,1
1,江苏省张家港市None杨舍老街10单元203、205、206、207、219、220号,苏州市,1899/12/30 22:00:00,"['OG', 'DL', 'MIC', 'PO']",伪,31.865611,120.549297,1899/12/30 7:30:00,215000,苏州张家港杨舍老街店,52114-280385,1
1,江苏省昆山市None震川西路18号，21、23单元,苏州市,1899/12/30 21:00:00,"['OG', 'DL']",伪,31.378191,120.964184,1899/12/30 9:00:00,215000,苏州昆山巴黎春天店,47419-258206,1
1,张家港杨舍镇谷渎港河西路8-10号,苏州市,1899/12/30 21:30:00,"['OG', 'DL']",伪,31.861297,120.547061,1899/12/30 7:30:00,215000,张家港谷渎港店,18882-196426,1
1,杨舍镇河西路88号一层1404号铺位,苏州市,1899/12/30 22:00:00,"['OG', 'DL', 'MIC']",伪,31.860524,120.546595,1899/12/30 8:00:00,215000,张家港曼巴特广场店,23548-231065,1
1,上海市宝山区None上海市宝山区永清路700号111室,上海,1899/12/30 22:00:00,"['OG', 'DL', 'MIC', 'PO']",伪,31.395937,121.490886,1899/12/30 7:00:00,200000,宝山体育馆店,53958-286209,1
1,宝山区宝山安信牡丹江路1238号-B区-106室,上海,1899/12/30 22:00:00,"['OG', 'DL', 'MIC']",伪,31.392876,121.489021,1899/12/30 7:00:00,200000,宝山安信店,32516-136573,1
1,江苏省苏州市None昆山玉山镇白马泾路46号1室一层A101号商铺,苏州市,1899/12/30 22:00:00,"['OG', 'DL', 'PO']",伪,31.379513,120.94141,1899/12/30 7:30:00,215000,苏州昆山超华欧尚店,53839-286072,1
1,人民南路96-2号None昆山三角塔,苏州市,1899/12/30 21:30:00,"['OG', 'DL']",伪,31.373726,120.957709,1899/12/30 6:30:00,215000,昆山三角塔店,18986-189905,1
1,金港大道338号吾悦广场一楼123室None张家港吾悦广场,苏州市,1899/12/30 22:00:00,"['OG', 'DL', 'MIC']",伪,31.838402,120.54385,1899/12/30 7:30:00,215000,苏州张家港吾悦广场店,26339-242166,1
1,张家港市沙洲中路None步行街89号1F,苏州市,1899/12/30 21:00:00,"['OG', 'DL', 'PO']",伪,31.863056,120.541505,1899/12/30 8:30:00,215000,苏州张家港凯丽百货店,29422-253544,1
1,江苏省苏州市None昆山市虹祺路201号,苏州市,1899/12/30 21:30:00,"['OG', 'DL']",伪,31.381423,120.920677,1899/12/30 8:00:00,215000,苏州昆山后街商业广场店,52803-283165,1
1,宝山区蕴川路1555号1330、13311365、1388、1389铺位1340、1341、1364、,上海,1899/12/30 22:00:00,"['OG', 'DL']",伪,31.365965,121.433422,1899/12/30 7:00:00,200000,北上海生活广场店,28084-249525,1
1,上海市嘉定区1F层1007B、2层2008C/2009号铺位胜辛路426号,上海,1899/12/30 22:00:00,"['OG', 'DL']",伪,31.330929,121.254393,1899/12/30 7:00:00,200000,嘉定中信泰富万达广场店,56400-290298,1
1,上海市宝山区None水产路2499号111室,上海,1899/12/30 22:00:00,"['OG', 'DL', 'MIC', 'NCB']",伪,31.366256,121.443124,1899/12/30 7:00:00,200000,北翼生活广场店,49685-270794,1
1,昆山文化艺术中心1号景观建筑前进西路1850号,苏州市,1899/12/30 22:30:00,"['OG', 'BE', 'DL', 'MIC', 'NCB', 'RC', 'SBB']",伪,31.383203,120.907414,1899/12/30 6:30:00,215000,昆山文化艺术中心店,18716-194367,1
1,上海市嘉定区None宝安公路3386号131室,上海,1899/12/30 22:00:00,"['OG', 'DL', 'MIC', 'PO']",伪,31.32987,121.278399,1899/12/30 7:00:00,200000,嘉定大融城店,28925-251369,1
1,宝山区None陆翔路111弄119号,上海,1899/12/30 22:00:00,"['OG', 'DL']",伪,31.345188,121.372055,1899/12/30 7:00:00,200000,顾村公园店,22376-220124,1
1,江苏省昆山市None人民南路1188号123、125、126单元,苏州市,1899/12/30 22:00:00,"['OG', 'DL', 'PO']",伪,31.362971,120.953743,1899/12/30 7:30:00,215000,苏州昆山昆城广场店,48041-258225,1
1,牡丹江路318号None诺亚新天地一楼,上海,1899/12/30 22:00:00,"['OG', 'DL']",伪,31.382192,121.495496,1899/12/30 7:00:00,200000,诺亚新天地店,21834-215466,1
1,江苏省苏州市None昆山市衡山路58号A1001单元,苏州市,1899/12/30 21:00:00,"['OG', 'PO']",伪,31.354667,120.974484,1899/12/30 8:00:00,215000,苏州昆山弥敦城店,49597-270148,1
1,江苏省张家港市暨阳湖商业街2号101单元,苏州市,1899/12/30 22:00:00,['OG'],伪,31.840576,120.528344,1899/12/30 8:00:00,215000,苏州张家港暨阳湖商业街,49592-270146,1
1,"No.18,Weiye Rd",苏州,1899/12/30 19:30:00,"['OG', 'DL']",伪,31.34907,120.971611,1899/12/30 6:30:00,215000,昆山现代广场店,32623-134944,1
1,开发区吉田国际柏庐南路999号商业街商铺1号,苏州市,1899/12/30 21:00:00,"['OG', 'DL', 'PO']",伪,31.351065,120.960945,1899/12/30 6:30:00,215000,昆山吉田国际店,32413-133605,1
1,沙洲西路368号None购物公园克拉克水岸A107~108铺位,苏州市,1899/12/30 22:00:00,"['OG', 'DL', 'MIC']",伪,31.8683,120.517153,1899/12/30 7:30:00,215000,张家港购物公园店,20071-197505,1
1,江苏省苏州市None昆山市昆山南站KSN1-8室,苏州市,1899/12/30 20:00:00,['OG'],伪,31.352991,120.952786,1899/12/30 6:30:00,215000,苏州昆山南站店,49455-269525,1
1,江苏省无锡市锡山区东港镇健康路200号,无锡市,1899/12/30 21:30:00,"['OG', 'DL']",伪,31.699942,120.545801,1899/12/30 8:00:00,214000,无锡东港红豆万花城店,60357-294595,1
1,嘉定区None宝翔路801号118单元,上海,1899/12/30 22:00:00,"['OG', 'DL']",伪,31.31134,121.31781,1899/12/30 7:00:00,200000,南翔五彩城店,23914-201987,1
1,上海市宝山区None华秋路58弄21号一层、22号一层,上海,1899/12/30 20:00:00,"['OG', 'DL']",伪,31.320441,121.381406,1899/12/30 7:00:00,200000,朗香嘉年华店,29878-255444,1
1,上海市宝山区None纬地街路61号甲,上海,1899/12/30 22:00:00,"['OG', 'DL', 'PO']",伪,31.326313,121.406049,1899/12/30 7:00:00,200000,纬地路店,54091-286343,1
1,江苏省苏州市1F-1002昆山市玉山镇长江南路99号,苏州市,1899/12/30 22:00:00,"['OG', 'DL']",伪,31.3329,120.96651,1899/12/30 8:00:00,215000,苏州昆山吾悦广场店,55887-289748,1
1,宝山区纪蕰路320弄2号一层101室,上海,1899/12/30 22:00:00,"['OG', 'DL']",伪,31.335224,121.43807,1899/12/30 7:00:00,200000,场北路店,28961-251887,1
1,宝山区None通河路539、537-1号,上海,1899/12/30 22:00:00,"['OG', 'DL']",伪,31.337623,121.445651,1899/12/30 7:00:00,200000,红太阳商业广场店,23765-231966,1
1,宝山区None纪蕴路38号A-68单元,上海,1899/12/30 22:00:00,['OG'],伪,31.331406,121.440162,1899/12/30 7:00:00,200000,长江西路店,25481-231965,1
1,宝山区1号楼116、117室聚丰园路91号,上海,1899/12/30 22:00:00,"['OG', 'DL']",伪,31.315174,121.385296,1899/12/30 7:00:00,200000,聚丰园路店,21838-215904,1
1,上海市宝山区None共江路1208号1F-N1A,上海,1899/12/30 22:00:00,"['OG', 'DL']",伪,31.327108,121.444335,1899/12/30 7:00:00,200000,共江路家乐福店,49022-266505,1
1,上海市嘉定区None丰翔路3168号第一层113单元,上海,1899/12/30 22:00:00,"['OG', 'DL', 'PO']",伪,31.299465,121.326118,1899/12/30 7:00:00,200000,南翔太茂店,28823-251368,1
1,嘉定区上海大众技术管理中心于田路7号2号楼1F-1单元,上海,1899/12/30 19:00:00,['OG'],伪,31.288383,121.186998,1899/12/30 7:00:00,200000,大众汽车总部店,26758-245105,1
1,嘉定区南翔祥腾广场佳通路31弄3号,上海,1899/12/30 22:00:00,"['OG', 'DL', 'MIC', 'PO']",伪,31.296909,121.321304,1899/12/30 7:00:00,200000,南翔祥腾广场店,18087-183585,1
1,江苏省苏州市昆山市花桥None经济技术开发区花安路171号2#1-2#4,苏州市,1899/12/30 21:00:00,"['OG', 'DL', 'MIC']",伪,31.289051,121.147075,1899/12/30 7:30:00,215000,昆山花桥商务城店,16657-174184,1
1,嘉定区嘉亭荟城市生活广场108室墨玉南路1055号,上海,,['OG'],伪,31.28804,121.163139,,200000,嘉亭荟店,17168-171924,1
1,嘉定区None嘉松北路6130号,上海,1899/12/30 22:00:00,"['OG', 'DL']",伪,31.286914,121.216609,1899/12/30 7:00:00,200000,嘉实生活广场店,19327-200245,1
1,宝山区万达广场一二八纪念路988弄1号1层119号铺位,上海,1899/12/30 22:00:00,"['OG', 'DL', 'MIC', 'PO']",伪,31.324156,121.447914,1899/12/30 7:00:00,200000,宝山万达店,16490-170368,1
1,宝山区绿地风尚天地广场共和新路5000 弄5号105、106、107室,上海,1899/12/30 22:00:00,"['OG', 'DL']",伪,31.322004,121.445102,1899/12/30 7:00:00,200000,共康路店,18883-196405,1
1,"江苏省昆山市None花桥镇绿地大道258号,1号楼1、2单元",苏州市,1899/12/30 22:00:00,"['OG', 'DL', 'PO']",伪,31.286786,121.12676,1899/12/30 7:30:00,215000,苏州昆山花桥游站店,49596-270147,1
1,上海市静安区None共和新路4750号,上海,1899/12/30 22:00:00,"['OG', 'DL', 'MIC', 'NCB', 'PO']",伪,31.318529,121.446038,1899/12/30 7:00:00,200000,宏慧新汇园店,49020-266506,1
1,杨浦区None国权北路1688弄63号,上海,1899/12/30 19:00:00,"['OG', 'DL']",伪,31.338108,121.5016,1899/12/30 7:00:00,200000,湾谷科技园店,24745-238148,1
1,上海市宝山区None淞良路10号101-1,上海,1899/12/30 20:00:00,"['OG', 'DL', 'PO']",伪,31.334028,121.491802,1899/12/30 7:00:00,200000,宝山同济创园店,52472-281830,1
1,上海市嘉定区None绿苑路587号1层,上海,1899/12/30 21:00:00,"['OG', 'DL', 'PO']",伪,31.280334,121.210843,1899/12/30 7:00:00,200000,嘉定同济科技园店,54899-288641,1
1,嘉定区中暨大厦银翔路819弄1号04单元,上海,1899/12/30 22:00:00,"['OG', 'DL']",伪,31.288598,121.320972,1899/12/30 7:00:00,200000,中暨大厦店,24122-235273,1
1,上海市嘉定区None安拓路56弄13号第一层102室,上海,1899/12/30 19:00:00,"['OG', 'DL', 'PO']",伪,31.277881,121.193894,1899/12/30 7:30:00,200000,嘉定汽车城创新港店,52149-280505,1
1,宝山区None殷高西路333号3-152、3-153单元,上海,1899/12/30 22:00:00,"['OG', 'DL']",伪,31.320573,121.470967,1899/12/30 7:00:00,200000,殷高西路店,23430-230104,1
1,上海市杨浦区None国浩路231号101、102室,上海,1899/12/30 21:00:00,"['OG', 'DL', 'PO']",伪,31.335449,121.516608,1899/12/30 7:00:00,200000,新江湾城生活广场店,50503-275125,1
1,上海市杨浦区1号102殷行路1388弄,上海,1899/12/30 22:00:00,"['OG', 'DL', 'MIC', 'NCB', 'PO']",伪,31.330351,121.509145,1899/12/30 7:00:00,200000,悠方店,29663-254768,1
1,上海市宝山区None殷高西路10弄2号101、102-1室,上海,1899/12/30 22:00:00,"['OG', 'DL']",伪,31.320065,121.485108,1899/12/30 7:00:00,200000,殷高西路地铁站店,49235-267787,1
1,上海市嘉定区None安城路278号1层101单元,上海,1899/12/30 20:00:00,"['OG', 'PO']",伪,31.269373,121.171837,1899/12/30 8:00:00,200000,嘉定万科安亭新镇店,50013-272391,1
1,普陀区None武威路1118号115/116室,上海,1899/12/30 22:00:00,"['OG', 'DL']",伪,31.281973,121.350104,1899/12/30 7:00:00,200000,白丽广场店,28709-250787,1
1,普陀区None武威路1291号,上海,1899/12/30 22:00:00,"['OG', 'DL', 'PO']",伪,31.281428,121.348162,1899/12/30 7:00:00,200000,新邻天地广场店,50725-276044,1
1,上海市静安区场中路2008号、2010号,上海,1899/12/30 22:00:00,"['OG', 'DL']",伪,31.30496,121.452492,1899/12/30 7:00:00,200000,中建幸福空间,57706-291560,1
1,江苏省苏州市None相城区太平大街84号F104,苏州市,1899/12/30 21:30:00,"['OG', 'DL', 'PO']",伪,31.430728,120.701454,1899/12/30 8:30:00,215000,苏州太平邻里商业广场店,51449-278392,1
1,"杨浦区国安路758弄None10幢10F,10G室",上海,1899/12/30 21:00:00,"['OG', 'DL']",伪,31.32032,121.505648,1899/12/30 7:00:00,200000,星汇广场店,25900-242804,1
1,闸北区上海莱赛现代生活港江场二路77、79号,上海,1899/12/30 19:00:00,"['OG', 'DL']",伪,31.298726,121.443997,1899/12/30 7:00:00,200000,江场二路店,25792-242309,1
1,上海市静安区市北高新园区江场三路238号1层,上海,1899/12/30 20:00:00,"['OG', 'DL']",伪,31.293921,121.436822,1899/12/30 7:00:00,200000,市北高新园区店,18486-191346,1
1,"浦东新区张杨北路5770,5758号",上海,1899/12/30 22:00:00,"['OG', 'DL']",伪,31.347002,121.573839,1899/12/30 7:00:00,200000,高桥红坊店,29029-252006,1
1,上海市静安区None江场路1288号NL151单元,上海,1899/12/30 22:00:00,"['OG', 'DL', 'MIC']",伪,31.298411,121.457224,1899/12/30 7:00:00,200000,协信星光广场北区店,27097-243588,1
1,杨浦区尚浦商务中心江湾城路99号尚浦商务中心6幢1楼109a,上海,1899/12/30 21:00:00,"['OG', 'DL', 'MIC']",伪,31.316882,121.510203,1899/12/30 7:00:00,200000,尚浦中心店,25727-242155,1
1,工业园区奕欧来苏州精品购物村M4单元唯亭阳澄环路969号,苏州市,1899/12/30 20:00:00,"['OG', 'MIC']",伪,31.378647,120.761909,1899/12/30 9:00:00,215000,苏州village店,22676-223006,1
1,嘉定区None海波路616号1F-318室,上海,1899/12/30 22:00:00,"['OG', 'DL', 'MIC']",伪,31.268813,121.336847,1899/12/30 7:00:00,200000,嘉定Max未来店,28001-249227,1
1,上海市杨浦区None上海市杨浦区世界路131号、758号101室局部,上海,1899/12/30 22:00:00,"['OG', 'DL', 'PO']",伪,31.321823,121.525911,1899/12/30 7:00:00,200000,绿源天地广场店,51347-278066,1
1,浦东新区基隆路1号汤臣国贸大厦,上海,1899/12/30 19:00:00,"['OG', 'DL']",伪,31.349703,121.587647,1899/12/30 7:00:00,200000,汤臣国贸大厦店,16175-169214,1
1,闸北区寿阳路99弄24号S101A室,上海,1899/12/30 22:00:00,"['OG', 'DL']",伪,31.296035,121.458423,1899/12/30 8:00:00,200000,协信星光广场南区店,27098-243589,1
1,上海市杨浦区None三门路242号、国安路200号2层201室,上海,1899/12/30 20:00:00,"['OG', 'DL', 'PO']",伪,31.311073,121.505379,1899/12/30 7:00:00,200000,君庭广场店,27279-247005,1
1,工业园区时尚舞台商城A区1112B后戴街9号,苏州市,1899/12/30 19:30:00,"['OG', 'DL']",伪,31.340264,120.822788,1899/12/30 8:30:00,215000,苏州时尚舞台店,21671-214010,1
1,上海市杨浦区None国和路1000号117室,上海,1899/12/30 22:00:00,"['OG', 'DL', 'PO']",伪,31.318302,121.526192,1899/12/30 7:00:00,200000,国和路店,53794-286017,1
1,杨浦区中原城市广场国和路701号5105室,上海,1899/12/30 22:00:00,"['OG', 'DL', 'MIC', 'PO']",伪,31.316176,121.521802,1899/12/30 7:00:00,200000,中原城市广场店,24827-238907,1
1,杨浦区闸殷路1555号一层A110、A1None11、A113单元,上海,1899/12/30 22:00:00,"['OG', 'DL']",伪,31.311716,121.511034,1899/12/30 7:00:00,200000,上海国华广场店,58975-293218,1
1,杨浦区创智科技中心政立路477号,上海,1899/12/30 20:00:00,"['OG', 'DL']",伪,31.308959,121.508854,1899/12/30 7:00:00,,政立路店,23382-229404,1
1,上海市杨浦区None逸仙路519号09单元,上海,1899/12/30 21:00:00,"['OG', 'DL']",伪,31.300865,121.487188,1899/12/30 7:00:00,200000,三湘世纪花城店,49556-269925,1
1,上海市嘉定区1层以及263号1层嘉怡路261号,上海,1899/12/30 22:00:00,"['OG', 'DL']",伪,31.264022,121.347621,1899/12/30 7:00:00,200000,嘉定嘉尚坊店,56398-290299,1
1,枫庭丽苑武威东路小区出入口,上海,1899/12/30 22:00:00,"['OG', 'DL', 'PO']",伪,31.276582,121.408198,1899/12/30 7:00:00,200000,武威东路店,27206-246771,1
1,上海市虹口区虹口区车站南路330弄2号、6号,上海,1899/12/30 22:00:00,"['OG', 'DL', 'MIC', 'NCB']",伪,31.294901,121.475457,1899/12/30 7:00:00,200434,凉城世纪联华店,48607-264064,1
1,上海市静安区None沪太路1111弄8号,上海,1899/12/30 22:00:00,"['OG', 'DL', 'MIC', 'PO']",伪,31.279959,121.42765,1899/12/30 7:00:00,200000,静安大融城店,52147-280507,1
1,杨浦区Z18广场政德东路53号,上海,1899/12/30 21:00:00,"['OG', 'DL']",伪,31.309266,121.518094,1899/12/30 7:00:00,200000,Z18广场店,26544-244284,1
1,上海市静安区None灵石路716号,上海,1899/12/30 22:00:00,"['OG', 'DL', 'PO']",伪,31.281979,121.438208,1899/12/30 7:00:00,200000,灵石路店,51215-277367,1
1,宝山区美隆生活广场大华三路81号一层A5室,上海,1899/12/30 22:00:00,"['OG', 'DL']",伪,31.275725,121.418747,1899/12/30 7:00:00,200000,大华三路店,25495-241124,1
1,上海市静安区None灵石路695号3号楼1楼大堂,上海,1899/12/30 20:00:00,"['OG', 'DL']",伪,31.284212,121.449704,1899/12/30 7:00:00,200000,珠江创意中心店,20132-203467,1
1,上海市杨浦区None大学路318号,上海,1899/12/30 22:00:00,"['OG', 'DL', 'NCB', 'PO']",伪,31.303154,121.507417,1899/12/30 7:00:00,200000,大学路店,53575-285796,1
1,杨浦区创智天地淞沪路252-256号A1-24,上海,1899/12/30 20:00:00,"['OG', 'DL', 'MIC', 'NCB', 'PO']",伪,31.305473,121.513641,1899/12/30 7:00:00,200000,创智店,32220-104863,1
1,浦东新区3777F01042单元夏碧路261号1楼,上海,1899/12/30 22:00:00,"['OG', 'DL', 'MIC']",伪,31.337335,121.586905,1899/12/30 7:00:00,200000,夏碧路店,25723-242105,1
1,上海市静安区None万荣路777弄2号101室,上海,1899/12/30 22:00:00,"['OG', 'DL', 'MIC', 'NCB']",伪,31.280546,121.443682,1899/12/30 7:00:00,200000,大宁中心广场店,47531-258566,1
1,宝山区巴黎春天真华路928号一层101室,上海,1899/12/30 22:00:00,"['OG', 'DL', 'MIC', 'NCB', 'RC']",伪,31.271632,121.4113,1899/12/30 7:00:00,200000,真华路店,19328-199225,1
1,上海市浦东新区None夏碧路519号,上海,1899/12/30 22:00:00,"['OG', 'DL', 'PO']",伪,31.334176,121.583471,1899/12/30 7:00:00,200000,高桥新城店,53808-286025,1
1,上海市杨浦区None淞沪路199号B1层A-6室,上海,1899/12/30 22:00:00,"['OG', 'DL']",伪,31.303277,121.513954,1899/12/30 7:00:00,200000,太平洋森活地下广场店,26411-242124,1
1,上海市静安区None广中西路777弄65号102室,上海,1899/12/30 19:30:00,"['OG', 'DL']",伪,31.278386,121.439824,1899/12/30 7:00:00,200000,多媒体谷店,16630-173904,1
1,上海市杨浦区None逸仙路23-1号一层A室,上海,1899/12/30 20:00:00,"['OG', 'DL']",伪,31.294261,121.490423,1899/12/30 7:00:00,200433,同济晶度店,52211-280730,1
1,上海市杨浦区None淞沪路77号B1058室,上海,1899/12/30 22:00:00,"['OG', 'DL']",伪,31.302615,121.513684,1899/12/30 9:30:00,200000,五角场万达B1店,53890-286127,1
1,宝山区乐购大华店第一层的S1、S2单元大华路518号,上海,1899/12/30 22:00:00,"['OG', 'DL', 'MIC', 'PO']",伪,31.271034,121.414336,1899/12/30 7:00:00,200000,大华乐购店,21826-215465,1
1,嘉定区4幢101、102、109铺位虞姬墩路505号,上海,1899/12/30 22:00:00,"['OG', 'DL']",伪,31.255072,121.342172,1899/12/30 7:00:00,200000,江桥老街店,21718-214564,1
1,上海市杨浦区None民星路378号163、166、167室,上海,1899/12/30 22:00:00,"['OG', 'DL', 'MIC', 'PO']",伪,31.311864,121.539701,1899/12/30 7:00:00,200000,民星路店,48237-261284,1
1,杨浦区上海五角场万达商业广场万达影城国宾路58号3楼,上海,1899/12/30 22:30:00,"['OG', 'DL', 'MIC']",伪,31.300917,121.512978,1899/12/30 9:00:00,200000,五角场万达影城店,14968-156666,1
1,嘉定区乐坊广场金鼎路2218号121单元,上海,1899/12/30 22:00:00,"['OG', 'DL']",伪,31.258925,121.36561,1899/12/30 7:00:00,,乐坊广场店,25640-241685,1
1,虹口区1876老站创意园汶水东路351号1幢101室、102室,上海,1899/12/30 22:00:00,"['OG', 'DL', 'MIC', 'PO']",伪,31.289728,121.482585,1899/12/30 7:00:00,200000,大柏树店,23701-232606,1
1,杨浦区百联又一城凇沪路8号,上海,1899/12/30 22:00:00,"['OG', 'DL', 'MIC']",伪,31.301737,121.515511,1899/12/30 7:00:00,200001,又一城店,31524-148308,1
1,江苏省苏州市None昆山市张浦镇新吴街888号,苏州市,1899/12/30 21:30:00,"['OG', 'DL']",伪,31.282665,120.935099,1899/12/30 7:30:00,215000,苏州昆山张浦海尚广场,54302-286381,1
1,上海市虹口区None中山北一路1230号A102-1室,上海,1899/12/30 20:00:00,"['OG', 'DL', 'MIC', 'PO']",伪,31.291169,121.488673,1899/12/30 7:00:00,200000,柏树大厦店,53692-285958,1
1,上海市杨浦区None邯郸路600号1002，2001，2002室,上海,1899/12/30 22:00:00,"['OG', 'DL', 'MIC']",伪,31.300372,121.514398,1899/12/30 7:00:00,200000,五角场万达1F店,53888-286126,1
1,上海市杨浦区None翔殷路1088号105-106室,上海,1899/12/30 21:00:00,"['OG', 'DL', 'PO']",伪,31.301642,121.51831,1899/12/30 7:00:00,200000,凯迪新都汇店,53301-284512,1
1,上海市杨浦区None翔殷路1099号地下一层12号,上海,1899/12/30 22:00:00,"['OG', 'DL', 'MIC', 'NCB', 'PO']",伪,31.299903,121.516895,1899/12/30 10:00:00,200000,合生汇店,29515-253626,1
1,上海市虹口区None甘河路181号,上海,1899/12/30 22:00:00,"['OG', 'DL']",伪,31.288815,121.487687,1899/12/30 7:00:00,200000,甘河路店,29185-252685,1
1,杨浦区3号湾国定路319号F135单元,上海,1899/12/30 22:00:00,"['OG', 'DL']",伪,31.296335,121.50926,1899/12/30 7:00:00,200000,3号湾店,19277-200247,1
1,杨浦区第 L1 层B19-F01-1-030 室四平路2500号,上海,1899/12/30 22:00:00,"['OG', 'DL']",伪,31.298635,121.515361,1899/12/30 7:00:00,200000,杨浦百联悠迈生活广场店,22777-224604,1
1,上海市嘉定区None曹安公路1688号1层04单元,上海,1899/12/30 22:00:00,"['OG', 'DL', 'PO']",伪,31.254219,121.364121,1899/12/30 7:00:00,200000,嘉定威隆大厦店,54422-286693,1
1,上海市杨浦区None安波路419号,上海,1899/12/30 22:00:00,"['OG', 'DL']",伪,31.302284,121.53074,1899/12/30 7:00:00,200433,安波路店,48754-265071,1
1,上海市虹口区None株洲路329号1-2层,上海,1899/12/30 22:00:00,"['OG', 'DL']",伪,31.277997,121.465744,1899/12/30 7:00:00,200000,株洲路店,47425-258105,1
1,上海市虹口区中山北二路1818号1层G6None4-F01-1-01室,上海,1899/12/30 22:00:00,"['OG', 'DL', 'MIC', 'RC']",伪,31.286395,121.491145,1899/12/30 7:00:00,200000,上海百联曲阳购物中心店,59626-293864,1
1,闸北区大宁国际广场5幢1层114－117室共和新路1898号,上海,1899/12/30 23:00:00,"['OG', 'DL', 'MIC']",伪,31.273935,121.45327,1899/12/30 6:30:00,200000,大宁店,31268-103101,1
1,上海市普陀区第1层的D02单元曹杨路1888弄2号楼,上海,1899/12/30 22:00:00,"['OG', 'DL', 'MIC', 'PO']",伪,31.257235,121.406715,1899/12/30 7:00:00,200000,真如星光耀广场店,52100-278304,1
1,上海市虹口区大连西路556号,上海,1899/12/30 22:00:00,"['OG', 'DL']",伪,31.277367,121.478165,1899/12/30 7:00:00,200000,上海大连西路店,57432-291559,1
1,上海市杨浦区None国康路38号3幢,上海,1899/12/30 19:00:00,"['OG', 'DL']",伪,31.286294,121.505126,1899/12/30 7:00:00,200000,国康路店,29922-255825,1
1,上海市普陀区None铜川路1688号第一层L1026单元,上海,1899/12/30 22:00:00,"['OG', 'DL', 'PO']",伪,31.252511,121.388908,1899/12/30 7:00:00,200000,真北华润万家,53468-285656,1
1,嘉定区万达广场金沙江西路1051弄1-100号1100单元,上海,1899/12/30 22:00:00,"['OG', 'DL']",伪,31.240593,121.324269,1899/12/30 10:00:00,200000,江桥万达店,15665-164386,1
1,上海市青浦区None华志路771-789号一层102a单元,上海,1899/12/30 22:00:00,"['OG', 'DL', 'MIC', 'NCB', 'PO']",伪,31.231672,121.226236,1899/12/30 7:00:00,200000,青浦新尚生活广场店,49805-271365,1
1,上海市杨浦区None关山路73、75号,上海,1899/12/30 22:00:00,"['OG', 'DL', 'MIC', 'NCB', 'PO']",伪,31.29068,121.521613,1899/12/30 7:00:00,200000,东方蓝海广场店,29923-255824,1
1,上海市嘉定区None江桥镇金运路355号第十八栋1层101单元,上海,1899/12/30 22:00:00,"['OG', 'DL', 'NCB', 'PO']",伪,31.238016,121.320203,1899/12/30 7:00:00,200000,嘉定华泰广场店,53362-284646,1
1,上海市杨浦区None国权路73号,上海,1899/12/30 22:00:00,"['OG', 'DL']",伪,31.288241,121.518354,1899/12/30 7:00:00,200000,绿色米兰店,53467-285655,1
1,上海市杨浦区None佳木斯路488号1层101室,上海,1899/12/30 22:00:00,"['OG', 'DL', 'MIC', 'PO']",伪,31.294113,121.535036,1899/12/30 7:00:00,200000,佳木斯路店,49740-271088,1
1,虹口区虹口运动loft同心路723号11幢102室,上海,1899/12/30 22:00:00,"['OG', 'DL', 'MIC']",伪,31.271303,121.47334,1899/12/30 7:00:00,200000,虹口运动loft店,23546-231067,1
1,普陀区品尊国际广场铜川路58弄21-22号,上海,1899/12/30 22:00:00,"['OG', 'DL', 'MIC']",伪,31.255682,121.420685,1899/12/30 7:00:00,200333,品尊国际广场店,16429-167605,1
1,"Unit201,2F,Unit101,1F,No.18,Zhangwu RdYangpu District",上海,1899/12/30 22:00:00,"['OG', 'DL', 'MIC']",伪,31.281842,121.507558,1899/12/30 6:30:00,200000,同济联合广场B座店,49684-270791,1
1,普陀区百联购物广场真光路1288号,上海,1899/12/30 22:00:00,"['OG', 'DL']",伪,31.245817,121.383064,1899/12/30 7:00:00,200000,真光路店,31463-107015,1
1,虹口区虹口龙之梦西江湾路388号 (A)01层10/55号,上海,1899/12/30 22:00:00,"['OG', 'DL', 'MIC']",伪,31.270646,121.478488,1899/12/30 10:00:00,200080,虹口龙之梦店,18265-189488,1
1,虹口区虹口龙之梦西江湾路388号(A)01层56号,上海,1899/12/30 19:00:00,"['OG', 'DL']",伪,31.270482,121.477998,1899/12/30 7:00:00,,虹口龙之梦办公楼店,24911-239164,1
1,上海市普陀区None真光路1288号3楼A3F015室,上海,1899/12/30 22:00:00,"['OG', 'DL', 'MIC', 'NCB']",伪,31.245205,121.383803,1899/12/30 10:00:00,200000,中环百联3F店,50386-274646,1
1,普陀区梅川路梅川路1297号,上海,1899/12/30 22:00:00,"['OG', 'DL', 'MIC']",伪,31.244265,121.379582,1899/12/30 7:00:00,200000,梅川路店,18264-189486,1
1,江苏省苏州市None相城区南天成路苏州北站SZB-JQ-03B号,苏州市,1899/12/30 22:00:00,"['OG', 'PO']",伪,31.421288,120.644307,1899/12/30 6:30:00,215000,苏州北站店,54986-288784,1
1,上海市普陀区None真光路1219号1楼F1-B2室,上海,1899/12/30 22:00:00,"['OG', 'DL']",伪,31.243457,121.380903,1899/12/30 7:00:00,200000,真光路友谊商店店,51330-277864,1
1,上海市浦东新区None兰嵩路555号B幢119室,上海,1899/12/30 18:30:00,"['OG', 'DL', 'PO']",伪,31.318153,121.597815,1899/12/30 8:00:00,200120,森兰美伦店,51025-276953,1
1,上海市虹口区None曲阳路379号1楼04单元,上海,1899/12/30 21:30:00,"['OG', 'DL', 'PO']",伪,31.272702,121.491357,1899/12/30 7:00:00,200081,曲阳路店,49687-270787,1
1,上海市普陀区光新路294号,上海,1899/12/30 22:00:00,"['OG', 'DL', 'PO']",伪,31.254362,121.431722,1899/12/30 7:00:00,200000,上海融创香溢花城,59583-293469,1
1,浦东新区阳光天地张扬北路3181号,上海,1899/12/30 21:00:00,"['OG', 'DL']",伪,31.31234,121.588664,1899/12/30 7:00:00,200000,阳光城店,25901-242866,1
1,虹口区甜爱路四川北路2258号,上海,1899/12/30 22:00:00,"['OG', 'DL', 'NCB']",伪,31.268057,121.482853,1899/12/30 7:00:00,200000,甜爱路店,30624-100469,1
1,江苏省苏州市圆融新生活广场1层的1240单元相城区南天成路111号,苏州市,1899/12/30 21:30:00,"['OG', 'DL', 'MIC', 'PO']",伪,31.421778,120.637221,1899/12/30 8:00:00,215000,苏州南天成路店,27371-247289,1
1,普陀区金沙广场祁连山南路619号,上海,1899/12/30 22:00:00,"['OG', 'DL']",伪,31.236791,121.366696,1899/12/30 7:00:00,200000,金沙广场店,18266-189504,1
1,虹口区世纪联华1层1017F01002单元东宝兴路777号,上海,1899/12/30 22:00:00,"['OG', 'DL']",伪,31.263091,121.474964,1899/12/30 7:00:00,200000,东宝兴路店,26541-244289,1
1,江苏省苏州市1幢135室、1幢136室、1幢157室工业园区东沙湖路100号,苏州市,1899/12/30 22:00:00,"['OG', 'DL']",伪,31.333993,120.758514,1899/12/30 7:30:00,215000,苏州东沙湖邻里中心店,27590-247965,1
1,江苏省苏州市None张家港市金港镇长江中路182号,苏州市,1899/12/30 22:00:00,"['OG', 'DL', 'MIC', 'PO']",伪,31.956089,120.40862,1899/12/30 7:30:00,215000,苏州张家港长江路店,52113-280386,1
1,闸北区一层101单元及二层201、239单元芷江西路518号,上海,1899/12/30 22:00:00,"['OG', 'DL']",伪,31.256518,121.456139,1899/12/30 7:00:00,200000,五月花生活广场店,21184-209824,1
1,普陀区中远两湾城中潭路71号,上海,1899/12/30 22:00:00,"['OG', 'DL', 'MIC', 'PO']",伪,31.252337,121.442635,1899/12/30 7:00:00,200000,中远两湾城店,15120-157845,1
1,工业园区唯华路5号-5号楼101室,苏州市,1899/12/30 22:00:00,"['OG', 'DL', 'MIC']",伪,31.36134,120.712141,1899/12/30 7:30:00,215000,苏州曼哈顿广场店,27591-247727,1
1,上海市杨浦区None控江路2056号1F02，03a室,上海,1899/12/30 22:00:00,"['OG', 'DL', 'MIC', 'PO']",伪,31.273008,121.509758,1899/12/30 7:00:00,,控江旭辉MALL店,26416-235144,1
1,浦东新区外高桥高桥保税区加枫路24号,上海,1899/12/30 19:00:00,"['OG', 'DL', 'PO']",伪,31.313838,121.605681,1899/12/30 7:00:00,200000,外高桥店,30623-97938,1
1,上海市普陀区None武宁路503号1层102室,上海,1899/12/30 21:00:00,"['OG', 'DL', 'PO']",伪,31.243724,121.415685,1899/12/30 7:00:00,200000,鸿运大厦店,52863-283313,1
1,杨浦区None控江路1628号L113单元,上海,1899/12/30 22:00:00,"['OG', 'DL', 'MIC']",伪,31.275094,121.517949,1899/12/30 6:30:00,200000,紫荆广场店,26386-232605,1
1,上海市长宁区None临虹路365号-1A铺,上海,1899/12/30 20:00:00,"['OG', 'DL']",伪,31.230205,121.350176,1899/12/30 7:00:00,200000,中关村虹桥创新中心店,47619-258786,1
1,上海市杨浦区None控江路1777号一层L119室,上海,1899/12/30 22:00:00,"['OG', 'DL', 'PO']",伪,31.273854,121.515119,1899/12/30 7:00:00,200000,君欣时代广场店,52683-282427,1
1,长宁区福泉北路388号None1号办公楼（B座）1楼102室,上海,1899/12/30 19:00:00,"['OG', 'DL']",伪,31.230316,121.356003,1899/12/30 7:00:00,200000,东方国信店,27665-248312,1
1,上海市普陀区None中江路889号1F,上海,1899/12/30 22:00:00,"['OG', 'DL', 'MIC']",伪,31.235749,121.391658,1899/12/30 7:00:00,200000,中江路店,49402-268984,1
1,虹口区None四平路188号113、116室,上海,1899/12/30 22:00:00,"['OG', 'DL', 'MIC']",伪,31.262506,121.491026,1899/12/30 7:00:00,200000,四平路店,25866-242650,1
1,普陀区None金沙江路1685号-4区,上海,1899/12/30 22:00:00,"['OG', 'DL']",伪,31.232446,121.378829,1899/12/30 7:00:00,200000,118广场店,20911-208745,1
1,上海市杨浦区None江浦路1379号新华医院25号科技楼第1层101号单元,上海,1899/12/30 19:00:00,"['OG', 'DL']",伪,31.271814,121.518469,1899/12/30 7:00:00,200000,新华医院店,56291-290192,1
1,虹口区瑞虹天地天虹路320号、天宝路280弄1号,上海,1899/12/30 22:00:00,"['OG', 'DL', 'MIC']",伪,31.264191,121.497654,1899/12/30 7:00:00,200000,瑞虹天地店,23684-230108,1
1,虹口区None四川北路1689号110、202室,上海,1899/12/30 22:00:00,"['OG', 'DL']",伪,31.258604,121.481842,1899/12/30 7:00:00,200000,嘉杰广场店,28083-249527,1
1,普陀区近铁城市广场真北路818号B2层06\22单元,上海,1899/12/30 22:00:00,"['OG', 'DL', 'MIC']",伪,31.232502,121.382467,1899/12/30 7:00:00,200000,近铁城市广场店,22338-219630,1
1,上海市静安区None中兴路1688号火车站北广场星巴克（火车站售票厅旁）,上海,1899/12/30 22:00:00,['OG'],伪,31.250764,121.456667,1899/12/30 6:30:00,200000,上海火车站北广场店,23219-228669,1
1,杨浦区黄兴路221号1195幢C3107,上海,1899/12/30 21:00:00,"['OG', 'DL', 'MIC']",伪,31.273745,121.52505,1899/12/30 7:00:00,200000,互联宝地店,57105-291153,1
1,上海市虹口区None瑞虹路188号1层115单元,上海,1899/12/30 22:00:00,"['OG', 'DL', 'MIC', 'NCB', 'PO']",伪,31.264244,121.499177,1899/12/30 7:00:00,200000,月亮湾店,49458-269584,1
1,长宁区272号-5L、272号-5M通协路272号-5J、272号-5K,上海,1899/12/30 19:30:00,"['OG', 'DL']",伪,31.22715,121.35531,1899/12/30 7:00:00,200000,尚品中心1F店,25175-239632,1
1,上海市长宁区None福泉北路518号9座D102室,上海,1899/12/30 19:00:00,"['OG', 'DL']",伪,31.227531,121.358213,1899/12/30 7:00:00,200000,尚品中心B1店,25899-242704,1
1,上海市浦东新区None台中南路68号1幢103-104室,上海,1899/12/30 18:00:00,"['OG', 'DL']",伪,31.313902,121.615555,1899/12/30 7:00:00,200000,远洋财富广场店,52222-280645,1
1,上海市虹口区周家嘴路917号106-10None7,上海,1899/12/30 22:00:00,"['OG', 'DL', 'MIC', 'RC']",伪,31.262695,121.499644,1899/12/30 7:00:00,200000,上海上滨生活广场店,56434-289749,1
1,上海市虹口区None海伦路440号1夹层01和2层202单元,上海,1899/12/30 21:00:00,"['OG', 'BE', 'DL', 'MIC', 'NCB', 'RC', 'SBB']",伪,31.259035,121.489042,1899/12/30 7:00:00,200086,海伦中心店,50984-276769,1
1,普陀区长城大厦123单元中山北路3018号,上海,1899/12/30 22:00:00,"['OG', 'DL']",伪,31.237654,121.415085,1899/12/30 7:00:00,200000,长城大厦店,1774-154153,1
1,上海市静安区None秣陵路303号69幢一层R1单元,上海,1899/12/30 22:00:00,['OG'],伪,31.248351,121.455773,1899/12/30 6:00:00,200000,上海火车站南广场VIP店,23034-227031,1
1,上海市长宁区None通协路269号1F130室,上海,1899/12/30 19:00:00,"['OG', 'DL', 'PO']",伪,31.225123,121.355793,1899/12/30 7:00:00,200000,建滔广场店,29919-255925,1
1,江苏省无锡市第一层的01、45单元江阴市周庄镇世纪大道南段288号,无锡市,1899/12/30 21:30:00,"['OG', 'DL']",伪,31.854008,120.39645,1899/12/30 8:30:00,214000,江阴周庄中翔广场店,55205-289035,1
1,闸北区恒汇大厦天目西路437、439号,上海,1899/12/30 22:00:00,"['OG', 'DL', 'MIC', 'NCB', 'PO']",伪,31.246056,121.452385,1899/12/30 7:00:00,200000,恒汇大厦店,16332-170369,1
1,普陀区长寿路巴黎春天长寿路175号，179号L110单元,上海,1899/12/30 22:00:00,"['OG', 'DL', 'MIC']",伪,31.24281,121.44125,1899/12/30 7:00:00,200000,巴黎春天长寿路店,25167-239545,1
1,虹口区瑞虹新城临平路1号1层10&11单元,上海,1899/12/30 22:00:00,"['OG', 'DL', 'MIC', 'PO']",伪,31.260673,121.499428,1899/12/30 7:00:00,200000,瑞虹店,31567-110088,1
1,普陀区汇融天地曹杨路555号,上海,1899/12/30 22:00:00,"['OG', 'DL']",伪,31.236906,121.418501,1899/12/30 7:00:00,200000,汇融天地店,19123-194366,1
1,上海市静安区None西藏北路558号-588号,上海,1899/12/30 22:00:00,"['OG', 'DL', 'PO']",伪,31.25098,121.469904,1899/12/30 7:00:00,200000,铭德大酒店店,47072-256555,1
1,普陀区财富时代长寿路137号1楼02室,上海,1899/12/30 20:30:00,"['OG', 'DL']",伪,31.242821,121.442276,1899/12/30 7:00:00,200000,财富时代店,31715-109306,1
1,工业园区None钟南街238号,苏州市,1899/12/30 22:00:00,"['OG', 'DL']",伪,31.323209,120.756993,1899/12/30 9:00:00,215000,苏州永旺园区店,25643-223305,1
1,上海市虹口区None周家嘴路1089号,上海,,['OG'],伪,31.263054,121.507302,,200000,合生财富广场店,48844-265524,1
1,普陀区None武宁路101号F1-04室,上海,1899/12/30 22:00:00,"['OG', 'DL']",伪,31.237704,121.423449,1899/12/30 7:00:00,200000,我格广场店,27275-246953,1
1,上海市普陀区None金沙江路588号,上海,1899/12/30 22:00:00,"['OG', 'DL', 'PO']",伪,31.232522,121.40165,1899/12/30 7:00:00,200000,枣阳路店,51323-277808,1
1,工业园区圆融星座广场旺墩路269号,苏州市,1899/12/30 22:00:00,"['OG', 'DL', 'PO']",伪,31.322816,120.757331,1899/12/30 10:00:00,215000,苏州圆融星座店,19996-192546,1
1,上海市静安区None宝山路202号,上海,1899/12/30 22:00:00,"['OG', 'DL']",伪,31.252848,121.47751,1899/12/30 7:00:00,200000,宝山路店,18828-195445,1
1,上海市杨浦区None双阳支路135、137号,上海,1899/12/30 22:00:00,"['OG', 'DL']",伪,31.274408,121.539112,1899/12/30 7:00:00,200000,城市概念园店,26657-242588,1
1,闸北区太平洋百货天目西路218号一楼A-1号,上海,1899/12/30 22:00:00,"['OG', 'DL']",伪,31.245893,121.456713,1899/12/30 7:00:00,200000,闸北太平洋店,3958-147326,1
1,上海市普陀区普陀区中山北路3300号L1059-L1060室,上海,1899/12/30 22:00:00,"['OG', 'DL', 'MIC']",伪,31.234358,121.413138,1899/12/30 10:00:00,200000,月星环球港1F店,48580-264006,1
1,杨浦区七巧国隆昌路586号,上海,1899/12/30 22:00:00,"['OG', 'DL', 'MIC']",伪,31.275498,121.543053,1899/12/30 7:00:00,200000,复旦软件园店,26611-244747,1
1,长宁区金钟路968号None凌空SOHO广场2号楼2-106室,上海,1899/12/30 20:00:00,"['OG', 'DL', 'MIC', 'PO']",伪,31.221996,121.353321,1899/12/30 7:00:00,,凌空广场店,24979-239422,1
1,闸北区洲际中心裕通路100号,上海,1899/12/30 20:00:00,"['OG', 'DL']",伪,31.24433,121.45365,1899/12/30 7:00:00,200000,洲际中心店,12731-155294,1
1,普陀区月星环球港B1148-B1149中山北路3300号,上海,1899/12/30 22:00:00,"['OG', 'DL']",伪,31.233663,121.412861,1899/12/30 9:30:00,200000,月星环球港B1店,17611-183607,1
1,宁区金钟路968号None凌空SOHO16号楼一层商铺16-101,上海,1899/12/30 20:00:00,"['OG', 'DL']",伪,31.221335,121.351305,1899/12/30 7:00:00,200000,凌空广场携程店,26547-244290,1
1,上海市静安区None恒丰路399号L101单元,上海,1899/12/30 22:00:00,"['OG', 'DL', 'MIC', 'NCB']",伪,31.244385,121.45497,1899/12/30 7:00:00,200000,达邦协作广场店,27467-247644,1
1,上海市普陀区None安远路108号1F-01室,上海,1899/12/30 21:30:00,"['OG', 'DL', 'PO']",伪,31.24185,121.446338,1899/12/30 7:00:00,200000,平高国际广场店,47533-258612,1
1,上海市浦东新区None东煦路680号,上海,1899/12/30 22:00:00,"['OG', 'DL']",伪,31.295793,121.591694,1899/12/30 7:00:00,200000,仁恒森兰雅苑店,48370-263269,1
1,上海市普陀区1楼106、107、108室胶州路1055号,上海,1899/12/30 22:00:00,"['OG', 'DL', 'PO']",伪,31.238572,121.435232,1899/12/30 7:00:00,200000,新百安商场店,48995-266226,1
1,杨浦区None长阳路1687号,上海,1899/12/30 19:00:00,"['OG', 'DL']",伪,31.27085,121.534586,1899/12/30 7:00:00,200000,长阳谷店,27466-247546,1
1,虹口区申虹广场四川北路1350商场一层110-112室,上海,1899/12/30 22:00:00,"['OG', 'DL']",伪,31.25279,121.484464,1899/12/30 7:00:00,200000,申虹广场店,19929-203184,1
1,杨浦区文通大厦昆明路739号一楼101单元,上海,1899/12/30 19:00:00,"['OG', 'DL']",伪,31.263228,121.51561,1899/12/30 7:00:00,200000,文通大厦店,25492-239344,1
1,杨浦区A幢102单元  大连路688号宝地广场,上海,1899/12/30 22:00:00,"['OG', 'DL', 'MIC', 'PO']",伪,31.261639,121.511408,1899/12/30 7:00:00,200000,宝地广场店,18454-187328,1
1,工业园区None东长路88号,苏州市,1899/12/30 19:30:00,"['OG', 'DL', 'MIC']",伪,31.309033,120.776788,1899/12/30 6:30:00,215000,苏州产业园店,24905-239089,1
1,虹口区None沙泾路10号1-103单元,上海,1899/12/30 21:00:00,"['OG', 'DL', 'MIC', 'NCB']",伪,31.254377,121.491422,1899/12/30 9:00:00,200000,1933老场坊店,27659-248307,1
1,杨浦区宝地广场B1层盒马鲜生昆明路555号,上海,1899/12/30 22:00:00,['OG'],伪,31.261197,121.51163,1899/12/30 7:00:00,200000,宝地盒马店,57674-291806,1
1,上海市虹口区None武进路289号一层108室,上海,1899/12/30 19:00:00,"['OG', 'DL']",伪,31.251826,121.485443,1899/12/30 7:00:00,200000,海泰时代店,48158-261785,1
1,普陀区中港汇大厦长寿路828，846号,上海,1899/12/30 22:00:00,"['OG', 'DL']",伪,31.235951,121.430952,1899/12/30 7:00:00,200042,中港汇店,27243-246386,1
1,上海市杨浦区None长阳路1750号SHYP2 -108A室,上海,1899/12/30 22:00:00,"['OG', 'DL']",伪,31.270314,121.537737,1899/12/30 7:30:00,200000,长阳路欧尚店,48476-263484,1
1,闸北区“隆宇国际商务广场”中101-07号商铺恒丰路299号,上海,1899/12/30 22:00:00,"['OG', 'DL']",伪,31.242598,121.456456,1899/12/30 7:00:00,200000,隆宇太阳城店,21104-209244,1
1,上海市闵行区None上海市闵行区申长路1588弄6号楼104、105、106单元,上海,1899/12/30 20:00:00,"['OG', 'DL', 'PO']",伪,31.213595,121.314965,1899/12/30 7:00:00,200000,唯品会店,53780-285998,1
1,长宁区联强国际二期1C单元天山西路1068号,上海,1899/12/30 19:00:00,"['OG', 'DL']",伪,31.219307,121.35495,1899/12/30 7:00:00,200000,联强国际店,17715-183605,1
1,静安区静安门大厦安远路553号,上海,1899/12/30 22:00:00,"['OG', 'DL', 'MIC', 'NCB', 'PO']",伪,31.237192,121.438866,1899/12/30 7:00:00,200000,静安门大厦店,18428-184105,1
1,杨浦区安莉芳大厦昆明路508号,上海,1899/12/30 19:00:00,"['OG', 'DL']",伪,31.260042,121.512474,1899/12/30 7:00:00,200000,北美广场店,16631-173905,1
1,江苏省苏州市None吴中区甪直镇鸣市路18号万嘉生活广场1层132单元,苏州市,1899/12/30 22:00:00,"['OG', 'DL', 'PO']",伪,31.266778,120.866209,1899/12/30 8:00:00,215000,苏州甪直万嘉生活广场店,48813-265348,1
1,上海市静安区None常德路1042号,上海,1899/12/30 21:00:00,"['OG', 'DL', 'PO']",伪,31.236932,121.441008,1899/12/30 7:00:00,200041,常德路店,50333-274368,1
1,上海市普陀区丹巴路99号16-1室,上海,1899/12/30 20:00:00,"['OG', 'DL']",伪,31.22251,121.380113,1899/12/30 7:00:00,200062,苏宁天御店,27240-246385,1
1,长宁区神州智慧天地天山西路567号神州智慧天地裙房1层R106号,上海,1899/12/30 21:30:00,"['OG', 'DL']",伪,31.218061,121.356787,1899/12/30 7:00:00,200335,神州智慧天地店,27895-248892,1
1,上海市静安区None恒通路318号,上海,1899/12/30 22:00:00,"['OG', 'DL']",伪,31.24086,121.45691,1899/12/30 7:30:00,200000,凯德星贸商场店,52862-283446,1
1,长宁区统一企业大厦天山西路568号1幢105-106,上海,1899/12/30 21:30:00,"['OG', 'DL', 'MIC']",伪,31.21843,121.36058,1899/12/30 7:00:00,200000,统一企业大厦店,17592-183606,1
1,上海市静安区None西藏北路198号,上海,1899/12/30 22:00:00,"['OG', 'MIC']",伪,31.244516,121.472357,1899/12/30 10:00:00,200000,大悦城北楼8F店,47111-256684,1
1,上海市静安区None泰州路409号一层,上海,1899/12/30 21:00:00,"['OG', 'DL']",伪,31.233508,121.433817,1899/12/30 7:00:00,200041,泰州路店,49634-270367,1
1,上海市闵行区None保乐路69弄5号楼118单元,上海,1899/12/30 22:00:00,"['OG', 'DL', 'MIC']",伪,31.207745,121.291229,1899/12/30 7:00:00,200000,华漕旭辉店,26414-239384,1
1,上海市静安区4号底层A室部分区域长寿路1007号、1009号和999弄,上海,1899/12/30 21:00:00,"['OG', 'DL', 'PO']",伪,31.231474,121.429764,1899/12/30 7:00:00,200000,达安花园店,29512-253625,1
1,普陀区长风景畔广场大渡河路168弄136号1层101A室,上海,1899/12/30 22:00:00,"['OG', 'DL', 'MIC', 'NCB']",伪,31.22324,121.394528,1899/12/30 7:00:00,200000,长风大悦城1F店,16472-150905,1
1,上海市普陀区None云岭东路235号1层101单元,上海,1899/12/30 19:30:00,"['OG', 'DL', 'PO']",伪,31.222699,121.392275,1899/12/30 7:00:00,200000,上海跨国采购中心店,53364-285549,1
1,上海市静安区None曲阜路180号南座3楼中庭,上海,1899/12/30 22:00:00,"['OG', 'DL', 'MIC', 'NCB', 'PO']",伪,31.242977,121.472054,1899/12/30 10:00:00,200000,大悦城店,15202-158484,1
1,虹口区耀江广场吴淞路258号1楼102室,上海,1899/12/30 22:00:00,"['OG', 'DL', 'MIC', 'PO']",伪,31.248721,121.490199,1899/12/30 7:00:00,200000,耀江广场店,31919-109304,1
1,普陀区长风景畔广场大渡河路196号204单元,上海,1899/12/30 22:00:00,"['OG', 'DL']",伪,31.222838,121.395198,1899/12/30 10:00:00,200000,长风大悦城2F店,25642-241686,1
1,上海市杨浦区None江浦路627号24幢101室,上海,1899/12/30 21:00:00,"['OG', 'DL', 'PO']",伪,31.260592,121.525344,1899/12/30 7:00:00,200000,E朋汇店,29242-252866,1
1,杨浦区杨浦百联滨江购物中心宁国路218号L1层1A-024室,上海,1899/12/30 22:00:00,"['OG', 'DL', 'MIC']",伪,31.264854,121.5378,1899/12/30 7:00:00,200000,杨浦百联滨江购物中心店,24057-235145,1
1,杨浦区霍山路386号1层01,上海,1899/12/30 20:30:00,"['OG', 'DL', 'MIC', 'NCB', 'RC', 'SBB']",伪,31.256545,121.515812,1899/12/30 7:00:00,200000,上海光大安石中心店,58663-292920,1
1,静安区800秀常德路800号,上海,1899/12/30 22:30:00,"['OG', 'DL']",伪,31.233509,121.443161,1899/12/30 7:00:00,200000,800秀店,6069-149086,1
1,长宁区馥邦购物中心天山西路138号1楼35室,上海,1899/12/30 22:00:00,"['OG', 'DL']",伪,31.217495,121.37465,1899/12/30 7:00:00,200000,北新泾店,25734-242225,1
1,上海市静安区四行天地西藏北路18号105单元,上海,1899/12/30 21:00:00,"['OG', 'DL', 'MIC']",伪,31.241246,121.472199,1899/12/30 7:00:00,200000,四行天地店,23028-227032,1
1,上海市虹口区白玉兰广场商场LG1楼层LG1-M34商铺东长治路588号,上海,1899/12/30 22:00:00,"['OG', 'DL', 'MIC', 'PO']",伪,31.249193,121.497289,1899/12/30 7:00:00,200000,白玉兰广场LG1店,55553-286524,1
1,上海市长宁区None长宁路88号长宁King88一层商铺1-17、1-18室,上海,1899/12/30 22:00:00,"['OG', 'DL']",伪,31.228186,121.426972,1899/12/30 7:00:00,200000,长宁KING88购物中心店,48362-261924,1
1,江苏省苏州市None工业园区苏州大道东265号101、102、103单元,苏州市,1899/12/30 21:00:00,"['OG', 'DL']",伪,31.324164,120.734183,1899/12/30 7:30:00,215000,苏州现代传媒广场店,27081-246551,1
1,康定路1018号,上海,1899/12/30 22:00:00,"['OG', 'DL', 'MIC', 'PO']",伪,31.230683,121.436927,1899/12/30 7:00:00,200000,上海康定路店,59550-293791,1
1,上海市长宁区None天山西路18号申亚时代广场1号楼1层101室,上海,1899/12/30 22:00:00,"['OG', 'DL', 'PO']",伪,31.216675,121.375386,1899/12/30 7:00:00,200335,申亚时代广场店,49836-270368,1
1,上海市虹口区白玉兰广场商场 L1楼层 L1-16 商铺东长治路588号,上海,1899/12/30 22:00:00,"['OG', 'BE', 'DL', 'MIC', 'NCB', 'RC', 'SBB']",伪,31.248486,121.497742,1899/12/30 7:00:00,200000,白玉兰广场1F店,55552-286523,1
1,静安区远中风华昌化路68号,上海,1899/12/30 22:00:00,"['OG', 'DL', 'PO']",伪,31.234818,121.455101,1899/12/30 7:00:00,200000,远中风华店,32670-135967,1
1,杨浦区时尚中心杨树浦路2688号,上海,1899/12/30 21:00:00,"['OG', 'DL', 'MIC']",伪,31.270952,121.558559,1899/12/30 10:30:00,200000,时尚中心店,17856-186725,1
1,闵行区金丰路金丰路447号,上海,1899/12/30 21:30:00,"['OG', 'DL']",伪,31.203249,121.284729,1899/12/30 6:30:00,200000,金丰路店,31776-114987,1
1,静安区紫苑江宁路388号1_2层,上海,1899/12/30 21:00:00,"['OG', 'DL']",伪,31.233735,121.452645,1899/12/30 7:00:00,200000,静安紫苑店,20594-206668,1
1,上海市静安区None万航渡路750号,上海,1899/12/30 22:00:00,"['OG', 'DL', 'MIC', 'PO']",伪,31.227456,121.430731,1899/12/30 7:00:00,200000,金融街静安中心店,49866-271626,1
1,虹口区国际港务大厦东大名路358号1楼,上海,1899/12/30 19:00:00,"['OG', 'DL']",伪,31.246439,121.495979,1899/12/30 7:00:00,200080,国际港务大厦店,17790-185025,1
1,江苏省苏州市None工业园区九华路65号第1层118单元,苏州市,1899/12/30 22:00:00,"['OG', 'DL', 'PO']",伪,31.32754,120.72487,1899/12/30 7:30:00,215000,苏州景城邻里中心店,49709-270944,1
1,山海关路388号博华广场零售区None第1层K-02室,上海,1899/12/30 22:00:00,"['OG', 'DL', 'MIC', 'PO']",伪,31.235937,121.462722,1899/12/30 7:00:00,200000,博华广场,55580-289337,1
1,浦东新区东靖路1881号,上海,1899/12/30 22:00:00,"['OG', 'DL', 'MIC']",伪,31.293371,121.610098,1899/12/30 7:00:00,200000,万嘉广场店,29030-252005,1
1,虹口区None公平路38号地下一层3-2单元,上海,1899/12/30 20:00:00,"['OG', 'DL']",伪,31.250244,121.507603,1899/12/30 7:00:00,200000,公平路店,23717-232604,1
1,虹口区None黄浦路99号111室,上海,1899/12/30 22:00:00,"['OG', 'DL', 'MIC', 'NCB', 'PO']",伪,31.244717,121.492263,1899/12/30 7:00:00,200000,上海滩国际大厦店,21668-214007,1
1,静安区源创创意园新闸路1250号10号楼一层5室-10室,上海,1899/12/30 22:00:00,"['OG', 'DL', 'MIC']",伪,31.232461,121.452225,1899/12/30 7:00:00,200000,新闸路店,25480-240905,1
1,黄浦区新金桥西藏中路579－581号,上海,1899/12/30 22:00:00,"['OG', 'DL']",伪,31.237378,121.473199,1899/12/30 7:00:00,200000,新金桥店,31457-100363,1
1,上海市杨浦区None秦皇岛路58号1室,上海,1899/12/30 20:30:00,"['OG', 'DL', 'PO']",伪,31.251328,121.516247,1899/12/30 7:00:00,200000,建发国际大厦店,54193-286459,1
1,工业园区苏州欢乐颂津梁街172号,苏州市,1899/12/30 22:00:00,"['OG', 'DL', 'MIC', 'NCB', 'RC']",伪,31.315053,120.740927,1899/12/30 7:30:00,215000,苏州欢乐颂店,20871-208207,1
1,长宁区None天山路342号缤谷广场一层,上海,1899/12/30 22:00:00,"['OG', 'DL']",伪,31.214373,121.387393,1899/12/30 7:00:00,200000,缤谷广场店,23768-231466,1
1,上海市静安区None万航渡路333号一层01单元,上海,1899/12/30 20:00:00,"['OG', 'DL', 'PO']",伪,31.225617,121.437261,1899/12/30 7:00:00,200041,越商大厦店,52571-282244,1
1,上海市黄浦区None北京东路99号地上1楼L101A室,上海,1899/12/30 2:00:00,"['OG', 'BE', 'MIC', 'NCB', 'RC', 'SBB']",伪,31.240505,121.48848,1899/12/30 7:00:00,200000,星巴克臻选咖啡酒坊,54092-286345,1
1,上海市闵行区None申滨路473号一层L1-09单元,上海,1899/12/30 22:00:00,"['OG', 'DL']",伪,31.201243,121.308962,1899/12/30 7:00:00,200000,新华联购物中心店,49053-266824,1
1,上海市长宁区缤谷文化休闲广场二期三楼 310B 单元天山路345号,上海,1899/12/30 22:00:00,"['OG', 'DL', 'MIC', 'PO']",伪,31.213921,121.38918,1899/12/30 10:00:00,200000,缤谷广场二期3F店,22667-223347,1
1,浦东新区None利津路1275、1277号1F,上海,1899/12/30 22:00:00,"['OG', 'DL']",伪,31.281175,121.593649,1899/12/30 7:00:00,200000,利津路店,24273-236805,1
1,江苏省苏州市None工业园区旺墩路135号1层114、115单元,苏州市,1899/12/30 20:00:00,"['OG', 'DL', 'PO']",伪,31.320028,120.729597,1899/12/30 7:30:00,215000,苏州恒宇广场店,47332-257585,1
1,上海市黄浦区None南京东路300号L113、L215室,上海,1899/12/30 22:00:00,"['OG', 'DL']",伪,31.238297,121.483993,1899/12/30 7:00:00,200000,恒基名人大厦店,51807-279226,1
1,上海市黄浦区None南京东路800号4楼B02-F04-1-305室,上海,1899/12/30 21:00:00,['OG'],伪,31.235358,121.475288,1899/12/30 9:30:00,200000,第一百货商业中心C馆4F,54045-286293,1
1,黄浦区外滩中山东一路367号,上海,1899/12/30 22:30:00,"['OG', 'DL', 'MIC']",伪,31.240152,121.490547,1899/12/30 7:00:00,200000,外滩店,17558-183244,1
1,黄浦区新世界南京西路2－68号3F,上海,1899/12/30 22:00:00,['OG'],伪,31.234909,121.473892,1899/12/30 9:30:00,200000,新世界店,31555-107896,1
1,静安区恒基688广场南京西路688号L106B室,上海,1899/12/30 21:00:00,"['OG', 'DL']",伪,31.231762,121.463872,1899/12/30 7:00:00,200000,恒基688广场店,22672-223346,1
1,黄浦区None南京西路128号永新广场1F,上海,1899/12/30 22:00:00,"['OG', 'DL']",伪,31.234157,121.472194,1899/12/30 7:00:00,200000,黄浦永新广场店,23437-229784,1
1,黄浦区东方商厦南京东路800号B14-F01-1-015单元,上海,1899/12/30 21:00:00,"['OG', 'DL']",伪,31.235119,121.475456,1899/12/30 8:00:00,200000,六合路店,18740-194784,1
1,上海市长宁区32幢第一层F1-09单元中山西路262号,上海,1899/12/30 22:00:00,"['OG', 'DL']",伪,31.217484,121.409407,1899/12/30 7:00:00,200000,老船坞店,51324-278144,1
1,静安区汇银大厦南京西路762号1楼D座,上海,1899/12/30 22:00:00,"['OG', 'DL']",伪,31.231267,121.462964,1899/12/30 7:00:00,200000,汇银大厦店,19068-198327,1
1,长宁区龙之梦1018号B2F002商铺,上海,1899/12/30 22:00:00,"['OG', 'DL']",伪,31.219051,121.416588,1899/12/30 7:00:00,200070,中山公园龙之梦B2店,31044-100929,1
1,静安区N110、N201单元南京西路789号,上海,,"['OG', 'RC']",伪,31.230788,121.461698,,20041,上海烘焙工坊,51018-276981,1
1,黄浦区福建中路福建中路353号-359号1-2层1A02单元,上海,1899/12/30 21:00:00,"['OG', 'DL']",伪,31.236263,121.480072,1899/12/30 7:00:00,200000,福建中路店,18741-194785,1
1,长宁区百联西郊购物中心仙霞西路88号,上海,1899/12/30 22:00:00,"['OG', 'DL', 'MIC']",伪,31.208954,121.369309,1899/12/30 7:00:00,200000,西郊友谊店,35050-96680,1
1,上海市静安区None铜仁路299号大堂部位11-1,上海,1899/12/30 20:00:00,"['OG', 'DL']",伪,31.226759,121.448493,1899/12/30 7:00:00,200000,SOHO东海店,48762-265065,1
1,长宁区龙之梦长宁路1018号1F1073号商铺,上海,1899/12/30 22:00:00,"['OG', 'DL', 'MIC']",伪,31.218679,121.416828,1899/12/30 7:00:00,200050,中山公园龙之梦1F店,31206-100930,1
1,黄浦区老介福南京东路233号,上海,1899/12/30 22:30:00,"['OG', 'DL', 'MIC']",伪,31.237521,121.48527,1899/12/30 7:00:00,200000,老介福店,1692-142905,1
1,静安区恒隆广场1号楼1层南京西路1266号,上海,1899/12/30 20:00:00,"['OG', 'DL']",伪,31.228223,121.454117,1899/12/30 7:00:00,200040,恒隆广场1号楼1F店,17047-178992,1
1,黄浦区永安百货一楼南京东路635号,上海,1899/12/30 22:00:00,"['OG', 'DL']",伪,31.235305,121.478391,1899/12/30 8:30:00,200000,永安店,31238-99738,1
1,上海市黄浦区None南京东路829号G05商铺,上海,1899/12/30 23:00:00,"['OG', 'BE', 'MIC', 'NCB', 'RC', 'SBB']",伪,31.234409,121.475741,1899/12/30 7:00:00,200000,世茂广场店,52693-278776,1
1,上海市静安区静安区陕西北路278号一层A1-3商铺,上海,1899/12/30 22:00:00,"['OG', 'DL']",伪,31.228311,121.454947,1899/12/30 7:00:00,200000,金鹰店,48042-261285,1
1,上海市静安区None南京西路1266号306B,上海,1899/12/30 22:00:00,['OG'],伪,31.227775,121.4533,1899/12/30 7:00:00,200000,恒隆广场3F店,52882-283306,1
1,黄浦区2楼S-215单元南京东路299号,上海,1899/12/30 22:00:00,"['OG', 'DL']",伪,31.23696,121.48455,1899/12/30 10:00:00,200002,宏伊广场店,21665-214004,1
1,静安区吴江路吴江路128号,上海,,['OG'],伪,31.229792,121.461441,,200000,吴江路店,32534-136968,1
1,上海市黄浦区None南京东路353号1楼122室-2楼211室,上海,1899/12/30 22:00:00,"['OG', 'DL', 'PO']",伪,31.236526,121.483825,1899/12/30 7:00:00,200001,悦荟店,53355-285550,1
1,长宁区中山公园长宁路999号1F,上海,1899/12/30 23:00:00,"['OG', 'DL', 'MIC', 'NCB']",伪,31.21822,121.417837,1899/12/30 6:30:00,200000,中山公园店,30673-99829,1
1,静安区中信泰富广场南京西路1168号,上海,1899/12/30 22:00:00,"['OG', 'DL', 'MIC']",伪,31.227827,121.455302,1899/12/30 7:00:00,200041,中信店,35007-115705,1
1,工业园区嘉瑞巷18号None105、106单元,苏州市,1899/12/30 19:00:00,"['OG', 'DL']",伪,31.324362,120.71848,1899/12/30 7:30:00,215000,苏州望湖大厦店,26408-241305,1
1,长宁区None长宁路1193号3号办公楼1层01-01室,上海,1899/12/30 20:00:00,"['OG', 'DL']",伪,31.217123,121.413714,1899/12/30 7:00:00,,长宁来福士T3店,27666-248311,1
1,"No.1376,W.Nanjing RdNoneShanghai Mall",Shanghai,1899/12/30 23:00:00,"['OG', 'BE', 'DL', 'MIC', 'NCB', 'RC', 'SBB']",伪,31.226667,121.451996,1899/12/30 6:30:00,200000,波特曼店,35004-22241,1
1,黄浦区None南京西路388号,上海,1899/12/30 20:00:00,['OG'],伪,31.231518,121.468941,1899/12/30 7:00:00,200000,仙乐斯店,17758-185784,1
1,黄浦区None西藏中路289号,上海,1899/12/30 22:00:00,['OG'],伪,31.233229,121.474857,1899/12/30 7:00:00,200000,西藏路店,4148-147586,1
1,上海市黄浦区None轨道交通一号线人民广场地铁站 1-110商铺,上海,1899/12/30 22:00:00,['OG'],伪,31.232999,121.474106,1899/12/30 6:30:00,200000,人民广场地铁站,53400-285576,1
1,静安区静安晶品愚园路8号L1层11室、L2层09A室,上海,1899/12/30 22:00:00,"['OG', 'DL', 'MIC']",伪,31.22497,121.446189,1899/12/30 7:00:00,200000,静安晶品店,25174-239633,1
1,黄浦区申大厦102单元汉口路266号,上海,1899/12/30 22:00:00,"['OG', 'DL']",伪,31.236113,121.484848,1899/12/30 7:00:00,200000,申大厦店,8185-151567,1
1,江苏省苏州市一楼03单元工业园区中新大道东999号,苏州市,1899/12/30 22:00:00,"['OG', 'DL', 'PO']",伪,31.307335,120.746582,1899/12/30 10:00:00,215000,苏州园区体育中心店,54728-282436,1
1,黄浦区古象大酒店九江路595号一层,上海,1899/12/30 21:00:00,"['OG', 'DL', 'PO']",伪,31.234364,121.479507,1899/12/30 7:00:00,200001,古象大酒店店,15401-160924,1
1,上海市杨浦区None杨树浦路1072号1楼101-1室,上海,1899/12/30 20:00:00,"['OG', 'DL', 'PO']",伪,31.252018,121.531136,1899/12/30 7:00:00,200000,东方渔人码头店,27244-245906,1
1,"No.189,W.Nanjing Rd",Shanghai,1899/12/30 22:30:00,"['OG', 'MIC', 'NCB']",伪,31.231657,121.471031,1899/12/30 7:00:00,200000,人民公园店,35011-37039,1
1,江苏省苏州市1F-01-a#单元工业园区和众街58号,苏州市,1899/12/30 21:30:00,"['OG', 'DL', 'PO']",伪,31.329979,120.708149,1899/12/30 8:00:00,215000,苏州星汇生活广场店,54935-288704,1
1,上海市闵行区1层T2-105#号单元申长路988弄,上海,1899/12/30 20:00:00,"['OG', 'DL', 'MIC']",伪,31.198903,121.314202,1899/12/30 7:00:00,200000,虹桥万科中心1F店,26413-239416,1
1,上海静安区石门一路288号,上海,1899/12/30 22:00:00,"['OG', 'BE', 'MIC', 'NCB', 'RC']",伪,31.229024,121.462639,1899/12/30 7:00:00,200000,上海香港兴业中心二座店,57850-291968,1
1,上海市浦东新区陆家嘴环路1366号地上1None层01单元,上海,1899/12/30 19:00:00,"['OG', 'DL']",伪,31.241505,121.502545,1899/12/30 7:00:00,200000,上海富士康大厦,59643-293915,1
1,上海市长宁区None长宁路1123号（E）06层24、25号,上海,1899/12/30 22:00:00,"['OG', 'DL', 'MIC', 'PO']",伪,31.216573,121.415284,1899/12/30 10:00:00,200050,长宁来福士6F店,52456-281688,1
1,上海市长宁区福缘湾商场1层1座1101单元淞虹路920号,上海,1899/12/30 22:00:00,"['OG', 'DL']",伪,31.206024,121.363918,1899/12/30 7:00:00,200000,福缘湾九华店,48815-265345,1
1,静安区None南京西路1618号1层S103室,上海,1899/12/30 22:00:00,"['OG', 'MIC']",伪,31.22391,121.44594,1899/12/30 7:00:00,200040,久光百货店,22510-221526,1
1,上海市闵行区None申长路988弄LG2层214号单元,上海,1899/12/30 20:00:00,"['OG', 'DL']",伪,31.198338,121.314354,1899/12/30 7:00:00,200000,虹桥万科中心B2店,26412-239484,1
1,工业园区建屋大厦1楼大堂旺墩路188号,苏州市,1899/12/30 18:00:00,"['OG', 'DL', 'PO']",伪,31.320356,120.722115,1899/12/30 7:00:00,215000,苏州建屋店,1342-139380,1
1,黄浦区来福士广场办公楼一层大堂L1-02西藏中路268,上海,1899/12/30 21:00:00,['OG'],伪,31.232728,121.477556,1899/12/30 7:00:00,200001,来福士办公楼店,15464-141706,1
1,黄浦区明天广场南京西路399号1楼,上海,1899/12/30 20:00:00,"['OG', 'DL']",伪,31.230366,121.469734,1899/12/30 7:00:00,200001,明天广场店,35037-36659,1
1,上海市黄浦区05单元西藏中路268号来福士广场2楼04,上海,1899/12/30 22:00:00,"['OG', 'MIC', 'NCB', 'PO']",伪,31.232336,121.476473,1899/12/30 10:00:00,200120,来福士2F店,35038-93159,1
1,上海市黄浦区None四川中路213号102室,上海,1899/12/30 20:00:00,"['OG', 'DL', 'NCB', 'PO']",伪,31.235777,121.488018,1899/12/30 7:00:00,200002,久事大厦店,29516-253845,1
1,静安区静安嘉里中心商场E1-03、E1-06K室南京西路1515号,上海,1899/12/30 22:00:00,"['OG', 'BE', 'DL', 'MIC', 'NCB', 'RC', 'SBB']",伪,31.22454,121.450104,1899/12/30 7:00:00,200000,静安嘉里中心1F店,20599-180944,1
1,江苏省苏州市工业园区思安街99号2幢10None3室,苏州市,1899/12/30 19:00:00,"['OG', 'DL']",伪,31.32469,120.714533,1899/12/30 7:30:00,215000,苏州协鑫广场店,57401-291298,1
1,上海市黄浦区None福州路318号,上海,1899/12/30 20:00:00,"['OG', 'DL', 'MIC', 'NCB', 'PO']",伪,31.234587,121.484359,1899/12/30 7:00:00,200000,浦汇大厦店,55885-289751,1
1,上海市长宁区None凯旋路399号1幢1层102室,上海,1899/12/30 20:00:00,"['OG', 'DL', 'PO']",伪,31.215837,121.416237,1899/12/30 7:00:00,200000,龙之梦雅仕大厦店,51321-278145,1
1,浦东新区汇亚大厦陆家嘴环路1233号101,上海,1899/12/30 19:00:00,"['OG', 'DL']",伪,31.240894,121.504257,1899/12/30 7:00:00,200120,汇亚大厦店,15400-160926,1
1,黄浦区东侧商铺福州路465号2楼,上海,1899/12/30 20:00:00,['OG'],伪,31.233358,121.48147,1899/12/30 10:00:00,200000,上海书城店,1396-140870,1
1,长宁区舜元弘基天地江苏路458号1层116室,上海,1899/12/30 22:00:00,"['OG', 'DL']",伪,31.218984,121.430875,1899/12/30 7:00:00,200000,江苏路店,1652-134948,1
1,静安区越洋广场南京西路1601号越洋广场1楼1I室,上海,1899/12/30 22:00:00,"['OG', 'DL']",伪,31.22321,121.447233,1899/12/30 7:00:00,200000,越洋广场1F店,21571-211205,1
1,上海市静安区None南京西路1818号,上海,1899/12/30 22:00:00,"['OG', 'DL']",伪,31.222172,121.443354,1899/12/30 7:00:00,200000,1788广场店,48363-263271,1
1,长宁区巴黎春天百货1F定西路1328号,上海,,['OG'],伪,31.21677,121.42247,,200000,定西路店,31259-105086,1
1,浦东新区时代金融大厦2楼银城中路68号,上海,1899/12/30 19:30:00,"['OG', 'DL']",伪,31.24118,121.506554,1899/12/30 7:00:00,200000,时代金融店,1334-139374,1
1,静安区越洋广场商场B210室南京西路1601号,上海,1899/12/30 22:00:00,"['OG', 'DL']",伪,31.223196,121.44799,1899/12/30 8:00:00,200000,越洋广场B2店,7198-135969,1
1,浦东新区None银城路9-99号农业银行大厦地下一层01单元,上海,1899/12/30 19:00:00,"['OG', 'DL']",伪,31.242115,121.509638,1899/12/30 7:00:00,200000,浦江双辉店,16698-170367,1
1,上海市浦东新区None世纪大道1号广场1号铺位,上海,1899/12/30 22:00:00,"['OG', 'MIC', 'PO']",伪,31.238855,121.500086,1899/12/30 8:00:00,200000,东方明珠店,49779-271305,1
1,长宁区兆丰世贸大厦江苏路369号,上海,1899/12/30 22:00:00,"['OG', 'DL']",伪,31.218765,121.431541,1899/12/30 7:00:00,200000,兆丰店,32671-138934,1
1,长宁区巴黎春天天山路店天山路762号1层15号商铺,上海,1899/12/30 22:00:00,"['OG', 'DL', 'MIC']",伪,31.211728,121.401686,1899/12/30 7:00:00,200000,天山巴黎春天店,24335-237025,1
1,静安区静安嘉里中心商场SB2-06室延安中路1218号,上海,1899/12/30 22:00:00,"['OG', 'DL', 'MIC', 'NCB', 'PO']",伪,31.223057,121.449805,1899/12/30 7:00:00,200000,静安嘉里中心B2店,20610-206667,1
1,上海市黄浦区None西藏中路168号2楼202室,上海,1899/12/30 19:00:00,"['OG', 'DL', 'MIC', 'NCB', 'PO']",伪,31.230971,121.47737,1899/12/30 7:00:00,200000,都市总部大楼店,51164-276704,1
1,"No.433&439,Weihai RdJingan District",Shanghai,1899/12/30 22:00:00,"['OG', 'BE', 'DL', 'NCB', 'RC']",伪,31.226778,121.463524,1899/12/30 7:00:00,200000,威海路店,1677-139381,1
1,浦东新区森茂陆家嘴环路1000号,上海,1899/12/30 19:30:00,"['OG', 'DL']",伪,31.240282,121.507362,1899/12/30 7:00:00,200000,森茂店,35002-22261,1
1,浦东新区（临）“东方浮庭”2F-4室陆家嘴中心区世纪大道55号,上海,1899/12/30 22:00:00,"['OG', 'DL', 'PO']",伪,31.238179,121.501393,1899/12/30 7:00:00,200000,东方浮庭店,3844-153627,1
1,上海市长宁区天山路900号,上海,1899/12/30 22:00:00,"['OG', 'DL']",伪,31.211337,121.404784,1899/12/30 7:00:00,200000,上海汇金百货虹桥店,59860-294155,1
1,浦东新区正大广场B2-05单元陆家嘴西路168号,上海,1899/12/30 20:30:00,"['OG', 'DL']",伪,31.237325,121.499723,1899/12/30 9:00:00,200000,正大广场B2店,22206-218505,1
1,"1F,No.168,W.Lujiazui Rd",Shanghai,1899/12/30 22:00:00,"['OG', 'DL']",伪,31.237024,121.498893,1899/12/30 7:00:00,200000,正大广场1F店,35065-97041,1
1,上海市浦东新区None银城中路200号大堂,上海,1899/12/30 19:00:00,['OG'],伪,31.238458,121.503215,1899/12/30 7:00:00,200120,中银大厦店,56618-290513,1
1,浦东新区文峰广场张杨北路801号,上海,1899/12/30 22:00:00,"['OG', 'DL']",伪,31.271333,121.587329,1899/12/30 7:00:00,200000,文峰广场店,20566-206666,1
1,浦东新区正大广场陆家嘴西路168号3F,上海,1899/12/30 22:00:00,"['OG', 'MIC']",伪,31.237121,121.500322,1899/12/30 10:00:00,200000,正大广场3F店,35027-125392,1
1,上海市浦东新区五莲路1389弄3-6号,上海,1899/12/30 22:00:00,"['OG', 'DL']",伪,31.276522,121.598789,1899/12/30 7:00:00,200000,上海融创精彩天地店,59199-292528,1
1,静安区延安中路823号,上海,1899/12/30 20:30:00,"['OG', 'DL']",伪,31.223087,121.454621,1899/12/30 7:00:00,200000,达安广场店,29112-252448,1
1,黄浦区海洋大厦1F延安东路550号,上海,1899/12/30 17:00:00,['OG'],伪,31.230976,121.481544,1899/12/30 7:00:00,200000,海洋大厦店,17560-183246,1
1,江苏省苏州市1幢101、102、103室工业园区星湖街178号,苏州市,1899/12/30 21:30:00,"['OG', 'DL']",伪,31.31336,120.728091,1899/12/30 7:30:00,215000,苏州湖东邻里中心店,57174-291210,1
1,江苏省苏州市None江苏省苏州市相城区阳澄湖东路99号B1001、B1002、B1003、B1005,苏州市,1899/12/30 21:00:00,"['OG', 'DL', 'PO']",伪,31.366788,120.647979,1899/12/30 7:30:00,215000,苏州百购广场店,54181-286440,1
1,上海市浦东新区东方路18号E栋101-A,上海,1899/12/30 19:00:00,"['OG', 'DL']",伪,31.242998,121.517921,1899/12/30 7:00:00,200000,上海保利广场店,59642-293913,1
1,苏州工业园区苏州大道东456号1幢101None室1020单元,苏州市,1899/12/30 21:30:00,"['OG', 'BE', 'DL', 'MIC', 'RC']",伪,31.32314,120.711694,1899/12/30 7:30:00,215000,苏州新光天地1F店,59162-293365,1
1,上海市黄浦区None人民大道221号B1层236-238号单元,上海,1899/12/30 21:00:00,"['OG', 'DL']",伪,31.228346,121.473287,1899/12/30 9:30:00,200000,迪美广场店,29329-253269,1
1,黄浦区外滩中心河南中路88号,上海,1899/12/30 20:00:00,"['OG', 'DL']",伪,31.232426,121.486824,1899/12/30 7:00:00,200000,外滩中心店,6120-149007,1
1,江苏省苏州市None工业园区苏州大道东456号,苏州市,1899/12/30 21:00:00,"['OG', 'DL', 'PO']",伪,31.322588,120.712122,1899/12/30 8:00:00,215000,苏州新光天地店,53353-284788,1
1,黄浦区东海商业中心延安东路588号,上海,1899/12/30 20:00:00,"['OG', 'DL']",伪,31.230152,121.480027,1899/12/30 7:00:00,200000,东海店,35029-84203,1
1,长宁区None天山路889号层1E04室,上海,1899/12/30 22:00:00,"['OG', 'DL']",伪,31.210068,121.403667,1899/12/30 7:00:00,200000,百盛优客城市广场店,28825-251247,1
1,"FFudu Part,Binjiang RdPudong District",Shanghai,1899/12/30 23:00:00,"['OG', 'MIC']",伪,31.235258,121.497199,1899/12/30 7:00:00,,滨江店,35012-54820,1
1,工业园区D栋1楼104翠园路时代广场N6区,苏州市,1899/12/30 22:00:00,"['OG', 'DL', 'MIC', 'NCB', 'RC']",伪,31.320867,120.714089,1899/12/30 7:30:00,215000,苏州时代广场店,1655-134956,1
1,浦东新区上海国金中心D座商场裙房B2层LG2-29室世纪大道8号,上海,,['OG'],伪,31.236488,121.501721,,200000,国金中心店,9178-152449,1
1,上海市长宁区None台路179号B2LG2583单元,上海,1899/12/30 22:00:00,"['OG', 'DL']",伪,31.209222,121.402762,1899/12/30 10:00:00,200000,金虹桥国际中心B2店,48765-265186,1
1,长宁区金虹桥国际中心茅台路179号商场L1楼 L113号商铺,上海,1899/12/30 22:00:00,"['OG', 'DL', 'MIC', 'PO']",伪,31.20892,121.402598,1899/12/30 7:00:00,200000,金虹桥国际中心店,24129-220125,1
1,上海市长宁区None延安西路562号1楼,上海,1899/12/30 22:00:00,"['OG', 'DL']",伪,31.216622,121.435657,1899/12/30 7:00:00,200050,延安西路店,29920-255924,1
1,浦东新区晨达广场巨峰路1058弄2号,上海,1899/12/30 21:00:00,"['OG', 'DL']",伪,31.279859,121.609276,1899/12/30 7:00:00,200000,晨达广场店,22694-223825,1
1,长宁区虹桥火车站虹桥火车站出发层2F-北1，3F-C4,上海,1899/12/30 22:00:00,['OG'],伪,31.194737,121.321887,1899/12/30 5:30:00,200000,虹桥火车站出发区店,18482-191344,1
1,江苏省苏州市None工业园区钟园路788号108单元,苏州市,1899/12/30 21:00:00,"['OG', 'DL', 'MIC', 'NCB', 'RC']",伪,31.317407,120.718052,1899/12/30 9:30:00,215000,苏州丰隆城市中心店,55310-289164,1
1,上海市浦东新区None浦东大道1号,上海,1899/12/30 19:00:00,"['OG', 'DL']",伪,31.238884,121.510865,1899/12/30 7:00:00,200000,船舶大厦店,53534-285710,1
1,浦东新区未来资产大厦陆家嘴环路166号102室,上海,1899/12/30 20:00:00,"['OG', 'DL']",伪,31.235152,121.49997,1899/12/30 7:00:00,200000,未来资产大厦店,17559-183245,1
1,江苏省苏州市None工业园区旺墩路268号1A-M09室,苏州市,1899/12/30 22:00:00,"['OG', 'DL', 'NCB', 'PO']",伪,31.31965,120.714222,1899/12/30 7:30:00,215000,苏州久光百货店,48265-262435,1
1,上海市静安区华山路301号1FA3,上海,1899/12/30 22:00:00,"['OG', 'DL', 'MIC', 'RC']",伪,31.218874,121.446488,1899/12/30 7:00:00,200000,华山路,58583-292790,1
1,长宁区火车站到达区B1-19虹桥火车站到达区B1-19,上海,1899/12/30 22:30:00,['OG'],伪,31.19435,121.321759,1899/12/30 7:00:00,200000,虹桥火车站到达店,17155-179684,1
1,上海市闵行区None绍虹路218号一层101室,上海,1899/12/30 21:00:00,"['OG', 'DL', 'PO']",伪,31.192858,121.310951,1899/12/30 7:00:00,200000,虹桥新地中心店,49027-266504,1
1,上海市闵行区绍虹路99号108室,上海,1899/12/30 22:00:00,"['OG', 'BE', 'DL', 'MIC', 'RC', 'SBB']",伪,31.193246,121.314533,1899/12/30 7:00:00,200000,虹桥天地三店,60091-294374,1
1,闵行区虹桥天地申长路688号地下一层18室,上海,1899/12/30 22:00:00,"['OG', 'DL', 'MIC']",伪,31.193287,121.315516,1899/12/30 10:00:00,,虹桥天地二店,25486-226165,1
1,工业园区月廊街8号NoneL110b单元,苏州市,1899/12/30 22:00:00,"['OG', 'DL', 'PO']",伪,31.321212,120.710011,1899/12/30 9:00:00,215000,苏州诚品店,26073-243335,1
1,浦东新区花旗集团大厦1楼花园石桥路33号,上海,1899/12/30 20:00:00,"['OG', 'PO']",伪,31.234294,121.500721,1899/12/30 7:00:00,200000,花旗店,31509-107898,1
1,长宁区东方维京大厦仙霞路333号1层S105单元,上海,1899/12/30 20:00:00,"['OG', 'DL']",伪,31.206419,121.398689,1899/12/30 7:00:00,200000,东方维京大厦店,18338-189844,1
1,闵行区虹桥天地广场申长路900号2号楼一层103单元,上海,1899/12/30 20:00:00,"['OG', 'DL']",伪,31.192617,121.315823,1899/12/30 7:00:00,200000,虹桥天地一店,22937-226164,1
1,江苏省苏州市None相城区相城大道1168号一楼F130单元,苏州市,1899/12/30 22:00:00,"['OG', 'DL', 'PO']",伪,31.369177,120.639619,1899/12/30 8:00:00,215000,苏州相城天虹店,52868-283305,1
1,浦东新区裙房２楼2C-08、2C-10铺位世纪大道88号,上海,1899/12/30 21:00:00,"['OG', 'DL']",伪,31.235344,121.50531,1899/12/30 7:00:00,200000,金茂大厦店,1257-152686,1
1,黄浦区亚龙国际广场1f-102A金陵东路500号,上海,1899/12/30 22:00:00,"['OG', 'DL']",伪,31.227087,121.480034,1899/12/30 7:00:00,200000,亚龙国际广场店,15205-142904,1
1,卢湾区红房子陕西南路37号,上海,1899/12/30 22:00:00,"['OG', 'DL']",伪,31.220551,121.457809,1899/12/30 7:00:00,200000,红房子店,35061-98966,1
1,上海市闵行区None申长路799号1层SHHQTJ-B-1F-23、24号商铺,上海,1899/12/30 22:00:00,"['OG', 'DL', 'PO']",伪,31.191732,121.312871,1899/12/30 8:00:00,200000,龙湖虹桥天街1F店,48316-258204,1
1,长宁区远东国际大厦仙霞路299号,上海,1899/12/30 20:00:00,"['OG', 'DL']",伪,31.206369,121.40126,1899/12/30 7:00:00,200000,远东国际店,35014-57639,1
1,长宁区None定西路1026号,上海,1899/12/30 22:00:00,"['OG', 'DL']",伪,31.211461,121.42391,1899/12/30 7:00:00,200000,昭化路店,22024-216927,1
1,长宁区虹桥机场二号航站楼申达一路1号虹桥机场T2航站楼到达公众区0L-1号商铺,上海,1899/12/30 0:00:00,['OG'],伪,31.193631,121.328765,1899/12/30 7:00:00,200000,虹桥机场T2到达店,23767-233365,1
1,上海市浦东新区None世纪大道160号览海国际广场一层,上海,1899/12/30 20:00:00,"['OG', 'DL', 'PO']",伪,31.235789,121.508022,1899/12/30 7:00:00,200000,览海国际广场店,49967-272124,1
1,浦东新区环球金融世纪大道100号101,上海,,"['OG', 'NCB', 'RC', 'SBB']",伪,31.235372,121.507061,,200000,环球金融店,32700-117285,1
1,长宁区虹桥南丰城二期遵义路122弄6号2-B101单元,上海,1899/12/30 22:00:00,"['OG', 'DL', 'MIC']",伪,31.207234,121.407189,1899/12/30 7:00:00,200000,虹桥南丰城北楼B1店,24893-208751,1
1,长宁区虹桥南丰城遵义路100号1-L124和1-LM17单元,上海,1899/12/30 22:00:00,"['OG', 'DL', 'MIC']",伪,31.207469,121.408278,1899/12/30 7:00:00,200000,虹桥南丰城南楼1F店,24980-239421,1
1,江苏省苏州市None工业园区玲珑街1号46幢便名店1室,苏州市,1899/12/30 21:30:00,"['OG', 'DL', 'PO']",伪,31.328976,120.694763,1899/12/30 6:30:00,215000,苏州万科玲珑湾店,51446-278390,1
1,上海市黄浦区商场一楼106室淮海中路138号,上海,1899/12/30 22:00:00,"['OG', 'NCB', 'PO']",伪,31.22558,121.478218,1899/12/30 7:00:00,200000,上海广场店,27663-248308,1
1,上海市闵行区None申长路668号一层106-3、106-4单元,上海,1899/12/30 20:00:00,"['OG', 'DL', 'PO']",伪,31.191353,121.315692,1899/12/30 7:00:00,200000,虹桥冠捷店,54025-286284,1
1,工业园区1-1单元松涛街1088号20楼第一层,苏州市,1899/12/30 22:00:00,"['OG', 'DL']",伪,31.304438,120.734649,1899/12/30 7:30:00,215000,苏州斜塘老街店,27592-247704,1
1,黄浦区淮海东路淮海东路68号101单元,上海,1899/12/30 21:00:00,"['OG', 'DL']",伪,31.226366,121.481323,1899/12/30 7:00:00,200000,淮海东路店,16612-173724,1
1,上海市青浦区None盈港东路158号D-L104,上海,1899/12/30 19:00:00,"['OG', 'MIC', 'NCB']",伪,31.189484,121.30156,1899/12/30 9:00:00,200000,国家会展中心1F店,26389-236384,1
1,上海市黄浦区None中山东二路58号的外滩SOHO地下1层07室,上海,1899/12/30 19:30:00,"['OG', 'DL']",伪,31.229896,121.493245,1899/12/30 8:00:00,200000,外滩SOHO店,48131-261726,1
1,上海市浦东新区None银城中路501号L1-1,上海,1899/12/30 21:30:00,"['OG', 'MIC', 'NCB', 'RC', 'SBB']",伪,31.233833,121.505284,1899/12/30 7:00:00,200000,上海中心1F店,25868-242648,1
1,上海市黄浦区None淮海中路300号一楼106室,上海,1899/12/30 22:00:00,"['OG', 'MIC', 'NCB', 'PO']",伪,31.223741,121.473545,1899/12/30 7:00:00,200000,上海K11购物艺术中心店,47216-257224,1
1,"No.211,Century Rd",Shanghai,1899/12/30 19:00:00,['OG'],伪,31.235548,121.51062,1899/12/30 7:00:00,200000,信息大厦店,35031-92803,1
1,黄浦区香港广场北楼1-106淮海中路283号,上海,1899/12/30 22:00:00,"['OG', 'DL']",伪,31.223817,121.474697,1899/12/30 8:00:00,200000,香港广场店,22849-224948,1
1,长宁区虹桥机场T2候机楼C3-M2-S28申达一路1号,上海,1899/12/30 22:00:00,"['OG', 'MIC']",伪,31.192424,121.329435,1899/12/30 5:30:00,200000,虹桥西航站店,8013-148767,1
1,江苏省南通市None如皋市惠政路168号一层1062号商铺,南通市,1899/12/30 22:00:00,"['OG', 'DL', 'PO']",伪,32.369528,120.577398,1899/12/30 8:00:00,226000,南通如皋吾悦广场店,53296-284565,1
1,上海市长宁区None虹桥机场1号航站楼A塔5米层,上海,1899/12/30 21:00:00,"['OG', 'MIC']",伪,31.194987,121.348294,1899/12/30 5:30:00,200335,虹桥机场T1出发公众区店,48863-265752,1
1,上海市黄浦区None丽水路88号1F116单元,上海,1899/12/30 21:30:00,"['OG', 'DL', 'MIC', 'NCB']",伪,31.228176,121.490272,1899/12/30 7:00:00,200000,城隍珠宝店,50555-275306,1
1,浦东新区国际航运金融中心大厦大堂浦东大道720号,上海,1899/12/30 19:00:00,"['OG', 'DL']",伪,31.239899,121.524796,1899/12/30 7:00:00,200000,航运金融大厦店,32722-138208,1
1,徐汇区世纪商贸长乐路989号,上海,1899/12/30 21:00:00,"['OG', 'DL', 'MIC']",伪,31.215357,121.446991,1899/12/30 7:00:00,200000,世纪商贸店,3493-153167,1
1,上海市浦东新区None民生路118弄,上海,1899/12/30 22:00:00,"['OG', 'DL', 'PO']",伪,31.24425,121.537145,1899/12/30 7:00:00,200000,滨江光合新座店,50024-272464,1
1,长宁区万都中心大厦一层S102、S106商铺兴义路8号,上海,1899/12/30 22:00:00,"['OG', 'DL']",伪,31.205187,121.405239,1899/12/30 7:00:00,200051,万都店,31850-114725,1
1,长宁区尚嘉中心(商场)地下第2层B1-B11仙霞路99 号,上海,1899/12/30 22:00:00,"['OG', 'DL']",伪,31.205471,121.406641,1899/12/30 10:00:00,200030,尚嘉中心店,18932-196425,1
1,上海市青浦区None盈港东路158号D-L310,上海,1899/12/30 19:00:00,"['OG', 'MIC', 'NCB', 'PO']",伪,31.188423,121.302423,1899/12/30 9:00:00,200000,国家会展中心3F店,26391-236385,1
1,长宁区碧瑶行政公寓延安西路1166号,上海,1899/12/30 19:00:00,"['OG', 'DL']",伪,31.210177,121.428644,1899/12/30 7:00:00,200000,碧瑶店,32174-128568,1
1,黄浦区永银大厦1F西藏南路218号,上海,1899/12/30 20:00:00,"['OG', 'DL']",伪,31.224384,121.4805,1899/12/30 7:00:00,200000,永银大厦店,18221-189126,1
1,上海市长宁区None番禺路1号裙房A2室-3,上海,1899/12/30 21:00:00,"['OG', 'DL', 'MIC', 'PO']",伪,31.210193,121.429833,1899/12/30 7:00:00,200052,番禺路店,49744-271087,1
1,Arriving Floor Hongqiao Airport T1Changning District,上海,1899/12/30 0:00:00,['OG'],伪,31.193351,121.34618,1899/12/30 7:00:00,200000,虹桥机场T1到达,55842-289247,1
1,上海市浦东新区None浦东大道850号,上海,1899/12/30 19:00:00,"['OG', 'DL', 'PO']",伪,31.240319,121.529225,1899/12/30 7:00:00,200000,航科大厦店,52212-280726,1
1,工业园区苏州科技文化艺术中心103商铺观枫街1号,苏州市,1899/12/30 22:00:00,"['OG', 'DL', 'MIC']",伪,31.320527,120.703358,1899/12/30 9:30:00,215000,苏州科文中心店,32443-129625,1
1,黄浦区人民坊淮海中路835号1-3F,上海,1899/12/30 22:00:00,"['OG', 'DL']",伪,31.218058,121.462315,1899/12/30 7:00:00,200020,人民坊店,19077-198384,1
1,上海市长宁区None娄山关路55号2幢1层106单元,上海,1899/12/30 19:00:00,"['OG', 'DL', 'PO']",伪,31.203016,121.402527,1899/12/30 7:00:00,200051,新虹桥大厦店,53495-285683,1
1,徐汇区None海中路1008号,上海,1899/12/30 22:00:00,"['OG', 'DL']",伪,31.216463,121.457775,1899/12/30 7:00:00,200000,襄阳公园店,15499-162386,1
1,"No.937,M.Huaihai Rd",Shanghai,1899/12/30 23:00:00,"['OG', 'DL']",伪,31.216913,121.459732,1899/12/30 7:00:00,200000,美臣店,35005-20222,1
1,卢湾区新天地太仓路181弄18号楼,上海,1899/12/30 2:30:00,"['OG', 'DL', 'MIC', 'NCB']",伪,31.22102,121.474365,1899/12/30 6:30:00,200000,新天地店,35008-28367,1
1,雁荡路99号,上海,1899/12/30 21:00:00,"['OG', 'DL']",伪,31.2194,121.470047,1899/12/30 7:00:00,200000,雁荡路店,21830-215905,1
1,长宁区星空生活广场虹桥路1665号A-104、A-105单元,上海,1899/12/30 22:00:00,"['OG', 'DL']",伪,31.200234,121.392663,1899/12/30 6:30:00,200000,星空广场店,22217-218504,1
1,No. 100 Yu Yuan Road,Shanghai,1899/12/30 21:00:00,"['OG', 'DL']",伪,31.226062,121.492067,1899/12/30 7:00:00,200000,豫园九曲桥店,35006-28956,1
1,黄浦区None中山东二路531号B11室,上海,1899/12/30 21:30:00,"['OG', 'DL']",伪,31.227956,121.498068,1899/12/30 9:00:00,200000,十六铺店,27664-248309,1
1,上海市徐汇区徐汇区淮海中路999号LG2层236室,上海,1899/12/30 23:00:00,"['OG', 'DL']",伪,31.215531,121.457133,1899/12/30 7:30:00,200000,环贸广场LG2店,48188-262006,1
1,长宁区世贸商城延安西路2299号,上海,1899/12/30 21:00:00,"['OG', 'DL', 'MIC', 'PO']",伪,31.201939,121.402054,1899/12/30 7:00:00,200000,世贸商城店,35032-92141,1
1,黄浦区豫园豫园路100号（和丰楼）东侧,上海,1899/12/30 21:00:00,"['OG', 'DL']",伪,31.225837,121.492182,1899/12/30 7:00:00,200000,豫园和丰楼店,31510-108493,1
1,浦东新区南洋商业银行大厦世纪大道800号,上海,1899/12/30 21:00:00,"['OG', 'DL']",伪,31.233055,121.514549,1899/12/30 7:00:00,200000,南洋商业银行大厦店,16534-172664,1
1,徐汇区环贸广场淮海中路999号,上海,1899/12/30 20:00:00,"['OG', 'DL']",伪,31.215305,121.458435,1899/12/30 7:00:00,200000,环贸广场办公楼店,16965-177305,1
1,江苏省苏州市苏州星云汇生活广场1层L01-31-A单元相城区阳澄湖中路99号,苏州市,1899/12/30 22:00:00,"['OG', 'DL', 'PO']",伪,31.365133,120.635373,1899/12/30 8:00:00,215000,苏州阳澄湖中路店,47839-259327,1
1,黄浦区企业天地二期湖滨路150号L1-E05、L2-E06单元,上海,1899/12/30 22:00:00,"['OG', 'BE', 'DL', 'MIC', 'NCB', 'RC', 'SBB']",真,31.220508,121.478727,1899/12/30 7:00:00,200000,湖滨道店,23040-227187,1
1,徐汇区爱美高大厦1F-103室淮海中路1325号,上海,1899/12/30 22:00:00,"['OG', 'DL', 'MIC']",伪,31.212307,121.450043,1899/12/30 7:00:00,200000,爱美高大厦店,32654-134952,1
1,浦东新区世界广场浦东南路855号1D,上海,1899/12/30 21:00:00,"['OG', 'DL']",伪,31.232181,121.514932,1899/12/30 7:00:00,200000,世界广场店,25313-240226,1
1,长宁区美丽华花园水城南路85号,上海,1899/12/30 22:00:00,"['OG', 'DL', 'PO']",伪,31.19837,121.392479,1899/12/30 6:30:00,200000,美丽华花园店,30950-103154,1
1,上海市浦东新区10楼张扬路501号,上海,1899/12/30 22:30:00,['OG'],伪,31.231126,121.51293,1899/12/30 9:30:00,200120,八佰伴10F影城店,52652-282286,1
1,浦东新区None张杨路3611弄2号212、213、214、217、218室,上海,1899/12/30 22:00:00,"['OG', 'DL']",伪,31.256519,121.579666,1899/12/30 7:00:00,200000,金桥国际店,23326-229144,1
1,浦东新区申江路1500号,上海,1899/12/30 18:30:00,['OG'],伪,31.27752,121.62493,1899/12/30 7:30:00,,上海通用汽车店,28164-249984,1
1,上海市浦东新区世纪大道826号，第1层0None9单元,上海,1899/12/30 21:30:00,"['OG', 'DL', 'MIC', 'RC']",伪,31.231361,121.515623,1899/12/30 7:00:00,200000,上海陆家嘴金融广场,58048-292109,1
1,上海市黄浦区None中山东二路600号1幢1楼东侧,上海,1899/12/30 19:30:00,"['OG', 'PO']",伪,31.225594,121.498512,1899/12/30 7:00:00,200000,外滩金融中心办公楼店,47507-252450,1
1,"No.519,Xinhua Rd",Shanghai,1899/12/30 22:00:00,"['OG', 'DL', 'PO']",伪,31.204105,121.422882,1899/12/30 7:00:00,200000,新华路店,30800-101018,1
1,卢湾区瑞金二路瑞金二路101－107号,上海,1899/12/30 22:00:00,"['OG', 'DL']",伪,31.21513,121.465202,1899/12/30 7:00:00,200000,瑞金路店,30672-100308,1
1,黄浦区L138和L140单元河南南路489号,上海,1899/12/30 22:00:00,"['OG', 'DL']",伪,31.22245,121.490089,1899/12/30 7:00:00,200000,香港名都店,22146-217964,1
1,上海市浦东新区南泉北路429号2楼201,上海,1899/12/30 18:00:00,"['OG', 'DL']",伪,31.231211,121.5166,1899/12/30 7:00:00,200000,上海泰康保险大厦店,59159-293373,1
1,上海市浦东新区浦东南路899号511B单None元,上海,1899/12/30 22:00:00,"['OG', 'BE', 'DL', 'MIC', 'NCB', 'RC', 'SBB']",伪,31.230887,121.515947,1899/12/30 10:00:00,200000,上海陆家嘴中心店,59549-293757,1
1,上海市浦东新区None张杨路3918号1楼03室，2楼03室,上海,1899/12/30 22:00:00,"['OG', 'DL']",伪,31.256103,121.581202,1899/12/30 7:00:00,200000,久金购物中心店,24982-239305,1
1,上海市浦东新区None金高路1757号101-A室,上海,1899/12/30 22:00:00,"['OG', 'DL', 'PO']",伪,31.269262,121.610196,1899/12/30 7:00:00,200000,金桥佳邻坊店,47067-256554,1
1,长宁区东银中心红宝石路500号1F-106,上海,1899/12/30 20:00:00,"['OG', 'DL', 'MIC', 'PO']",伪,31.198166,121.399399,1899/12/30 7:00:00,200000,东银中心店,15671-164384,1
1,上海市黄浦区None思南路50号,上海,1899/12/30 22:00:00,"['OG', 'BE', 'DL', 'MIC', 'NCB', 'RC', 'SBB']",真,31.215081,121.467564,1899/12/30 7:00:00,200000,思南公馆店,28820-251207,1
1,浦东新区翡翠商都长岛路1160-1号,上海,1899/12/30 22:00:00,"['OG', 'DL', 'MIC', 'NCB', 'PO']",伪,31.260935,121.592495,1899/12/30 7:00:00,,长岛路店,26543-244285,1
1,上海市长宁区8号楼1层111室番禺路381号,上海,1899/12/30 22:00:00,"['OG', 'DL', 'MIC']",伪,31.204474,121.430137,1899/12/30 7:00:00,200052,幸福里店,28416-250544,1
1,"No.1568,Huashan Rd",Shanghai,1899/12/30 22:00:00,"['OG', 'DL']",伪,31.205267,121.433385,1899/12/30 7:00:00,200000,南丰大厦店,31351-105085,1
1,上海市浦东新区None张杨路2389弄,上海,1899/12/30 22:00:00,"['OG', 'DL', 'PO']",伪,31.24418,121.555209,1899/12/30 7:00:00,200000,置汇旭辉广场店,54273-286543,1
1,卢湾区轻科大厦汾阳路138号1楼03单元,上海,1899/12/30 21:00:00,"['OG', 'DL']",伪,31.209843,121.45298,1899/12/30 6:30:00,200000,汾阳路店,31365-107196,1
1,上海市徐汇区None淮海中路1555号1幢1楼A部位,上海,1899/12/30 20:30:00,"['OG', 'DL']",伪,31.207667,121.444802,1899/12/30 8:30:00,200000,上海图书馆店,54492-286731,1
1,黄浦区复兴广场复兴中路393号C103室,上海,1899/12/30 22:00:00,"['OG', 'DL']",伪,31.215924,121.474756,1899/12/30 7:00:00,200000,复兴广场店,23231-228627,1
1,江苏省苏州市None相城区采莲路616号B1007,苏州市,1899/12/30 20:00:00,"['OG', 'DL', 'PO']",伪,31.366137,120.627528,1899/12/30 8:30:00,215000,苏州繁花邻里店,53471-285651,1
1,长宁区高岛屋虹桥路1438号,上海,1899/12/30 20:00:00,"['OG', 'DL']",伪,31.197773,121.403717,1899/12/30 7:00:00,200000,玛瑙路店,18222-188709,1
1,上海市浦东新区None金高路1882号第一层105单元,上海,1899/12/30 22:00:00,"['OG', 'DL', 'MIC']",伪,31.266642,121.608688,1899/12/30 7:00:00,200000,金桥太茂店,47614-258986,1
1,浦东新区None浦东南路1078号1楼09A室,上海,1899/12/30 22:00:00,"['OG', 'DL']",伪,31.228425,121.515465,1899/12/30 7:00:00,200000,中融广场店,24229-236238,1
1,上海市黄浦区None瑞金二路197号综合大楼一楼,上海,1899/12/30 20:00:00,"['OG', 'DL']",伪,31.213398,121.468003,1899/12/30 7:00:00,200000,瑞金医院综合大楼店,47452-258306,1
1,相城区None嘉元路1060号的第一层的A003、A004、嘉09、嘉10单元,苏州市,1899/12/30 21:00:00,"['OG', 'DL', 'PO']",伪,31.370329,120.621298,1899/12/30 8:00:00,215000,苏州中翔时尚广场店,28871-251772,1
1,黄浦区None老太平弄100号,上海,1899/12/30 21:30:00,"['OG', 'DL']",伪,31.223433,121.501389,1899/12/30 7:00:00,200000,金外滩花园店,22743-224085,1
1,长宁区万豪大酒店A段101-1虹桥路2270,上海,1899/12/30 21:30:00,"['OG', 'DL']",伪,31.191612,121.37675,1899/12/30 6:30:00,200000,虹桥万豪店,32624-138813,1
1,上海市浦东新区None张杨路501号2F,上海,1899/12/30 22:00:00,['OG'],伪,31.228441,121.516475,1899/12/30 7:00:00,200000,八佰伴2F店,50067-272705,1
1,上海市长宁区None黄金城道776号1楼103室,上海,1899/12/30 22:00:00,"['OG', 'DL', 'PO']",伪,31.195953,121.399118,1899/12/30 7:00:00,200000,黄金城道店,27660-248310,1
1,浦东新区新大陆广场南泉北路588号S1-08,上海,1899/12/30 22:00:00,"['OG', 'DL']",伪,31.22917,121.51886,1899/12/30 7:00:00,200000,新大陆广场店,24151-235908,1
1,徐汇区1F武康路420号,上海,1899/12/30 22:00:00,"['OG', 'BE', 'DL', 'NCB', 'RC']",伪,31.2048,121.437968,1899/12/30 7:00:00,200031,武康路店,18673-194004,1
1,长宁区上海影城底层001号商铺新华路160号,上海,1899/12/30 22:00:00,"['OG', 'DL']",伪,31.202454,121.429314,1899/12/30 7:30:00,200000,上海影城店,31933-107315,1
1,上海市黄浦区盐城路58号,上海,1899/12/30 22:00:00,"['OG', 'BE', 'DL', 'MIC', 'PO', 'SBB']",伪,31.21736,121.484093,1899/12/30 7:00:00,200000,上海复兴荟店,59455-293689,1
1,浦东新区上海湾浦东南路1138号181-184,上海,1899/12/30 22:00:00,"['OG', 'DL']",伪,31.22663,121.51363,1899/12/30 7:00:00,200000,上海湾店,18339-189846,1
1,浦东新区永安金店101、201铺位张杨路655号,上海,1899/12/30 22:00:00,"['OG', 'DL']",伪,31.228476,121.519709,1899/12/30 7:00:00,200000,张杨路店,18333-189864,1
1,长宁区中山广场中山西路1065号104室,上海,1899/12/30 19:30:00,"['OG', 'DL']",伪,31.198387,121.415222,1899/12/30 7:00:00,200000,中山广场店,21112-209305,1
1,江苏省苏州市1001室、1002室、1003室、1005室、1006室相城区御窑路66号,苏州市,1899/12/30 21:30:00,"['OG', 'DL', 'PO']",伪,31.37711,120.610597,1899/12/30 7:30:00,215000,苏州御窑路店,50112-273085,1
1,"No.20, Shuicheng nan Road",Shanghai,1899/12/30 22:30:00,"['OG', 'DL', 'MIC', 'NCB', 'PO']",伪,31.193802,121.394455,1899/12/30 6:30:00,200000,古北店,35010-42542,1
1,浦东新区张杨路1553号,上海,1899/12/30 22:00:00,"['OG', 'DL']",伪,31.234528,121.537264,1899/12/30 7:00:00,200000,陆家嘴国际华城店,27423-247525,1
1,上海市黄浦区西藏南路758号101单元,上海,1899/12/30 20:00:00,"['OG', 'DL']",伪,31.216054,121.484277,1899/12/30 7:00:00,200000,上海前社店,58353-292529,1
1,浦东新区汤臣金融中心东方路710号,上海,1899/12/30 20:00:00,"['OG', 'DL']",伪,31.229257,121.524293,1899/12/30 7:00:00,200000,汤臣店,31667-110084,1
1,上海市浦东新区None世纪大道1229号1层04单元,上海,1899/12/30 20:00:00,"['OG', 'DL']",伪,31.229987,121.527038,1899/12/30 7:00:00,200000,世纪大都会1F店,49386-268784,1
1,上海浦东新区浦东新区世纪大道1217号B1层G59-B01-1-005\006,上海,1899/12/30 22:00:00,"['OG', 'NCB', 'RC']",伪,31.22989,121.526847,1899/12/30 7:00:00,200000,百联世纪购物中心B1店,48756-265075,1
1,江苏省苏州市苏州黄埭中翔生活广场1层方046、1103单元相城区黄埭镇方桥路28号,苏州市,1899/12/30 22:00:00,"['OG', 'DL', 'PO']",伪,31.420865,120.560081,1899/12/30 8:00:00,215000,苏州黄埭中翔生活广场店,49238-267768,1
1,上海市黄浦区None瑞金二路197号门诊大楼一楼,上海,1899/12/30 18:00:00,"['OG', 'DL']",伪,31.210506,121.467001,1899/12/30 7:00:00,200000,瑞金医院门诊大楼店,47215-257225,1
1,长宁区None淮海西路280号101室,上海,1899/12/30 22:00:00,"['OG', 'DL']",伪,31.200262,121.429089,1899/12/30 7:00:00,,淮海花园店,27076-246484,1
1,浦东新区陆家嘴公馆张杨路1550号,上海,1899/12/30 22:00:00,"['OG', 'DL']",伪,31.234846,121.541503,1899/12/30 7:00:00,200000,陆家嘴公馆店,21629-213765,1
1,上海市徐汇区None淮海西路1号第一层A单元,上海,1899/12/30 21:00:00,"['OG', 'DL']",伪,31.201541,121.434933,1899/12/30 7:00:00,200030,淮海西路店,51805-279224,1
1,上海市浦东新区浦东新区福山路312号B1层07单元,上海,1899/12/30 22:00:00,['OG'],伪,31.229555,121.527685,1899/12/30 7:00:00,200000,世纪大都会B1店,27339-247291,1
1,建国中路8-10号,上海,1899/12/30 21:30:00,"['OG', 'DL']",伪,31.210878,121.471108,1899/12/30 7:00:00,200000,8号桥一期8号楼店,20194-204147,1
1,上海市浦东新区None东方路796号153 173单元,上海,1899/12/30 22:00:00,"['OG', 'DL', 'MIC', 'NCB', 'RC']",伪,31.227941,121.524764,1899/12/30 7:00:00,200000,96广场店,49309-268028,1
1,上海市黄浦区建国东路355号None一层L101室,上海,1899/12/30 22:00:00,"['OG', 'DL', 'MIC', 'RC', 'SBB']",伪,31.212248,121.476675,1899/12/30 7:00:00,200000,中海环宇荟店,56770-290720,1
1,"上海市浦东新区None枣庄路805,807号",上海,1899/12/30 22:00:00,"['OG', 'DL', 'PO']",伪,31.25016,121.581449,1899/12/30 7:00:00,200000,金杨第一商城店,50590-275484,1
1,浦东新区紫金山大酒店（江苏大厦）崂山路526号一层大堂区域,上海,1899/12/30 21:30:00,"['OG', 'DL']",伪,31.227268,121.52345,1899/12/30 7:00:00,200000,江苏大厦店,22148-218049,1
1,上海市徐汇区徐汇区华山路1954号包兆龙图书馆一层,上海,1899/12/30 22:00:00,"['OG', 'DL']",伪,31.199876,121.432568,1899/12/30 7:00:00,200000,上海交通大学店,47221-256948,1
1,上海市浦东新区None世纪大道1192号世纪汇广场 LG1层002号,上海,1899/12/30 22:00:00,['OG'],伪,31.228002,121.527208,1899/12/30 7:00:00,200000,世纪汇广场店,52644-282287,1
1,长宁区新淮海坊海西路676号1层01室,上海,1899/12/30 22:00:00,"['OG', 'DL']",伪,31.197037,121.422516,1899/12/30 7:00:00,200000,新淮海坊店,17451-182007,1
1,上海市徐汇区None建国西路258号,上海,1899/12/30 22:00:00,"['OG', 'BE', 'DL', 'MIC', 'NCB', 'PO', 'SBB']",伪,31.205871,121.459759,1899/12/30 7:00:00,200031,嘉御庭店,54322-286592,1
1,工业园区邻瑞广场西华林街88号,苏州市,1899/12/30 22:00:00,"['OG', 'DL', 'MIC', 'PO']",伪,31.29701,120.7181,1899/12/30 7:30:00,215000,苏州邻瑞广场店,19401-201206,1
1,浦东新区None潍坊西路92号,上海,1899/12/30 22:00:00,"['OG', 'DL']",伪,31.222529,121.515948,1899/12/30 7:00:00,200000,潍坊西路店,24375-237267,1
1,上海市徐汇区None淮海西路555号1楼103单元淮海西路555号1楼103单元,上海,1899/12/30 22:00:00,"['OG', 'DL']",伪,31.195821,121.423113,1899/12/30 7:00:00,200000,汇京国际广场店,49635-270364,1
1,上海市闵行区None虹梅路3188－1号,上海,1899/12/30 22:30:00,"['OG', 'DL', 'MIC', 'NCB', 'PO']",伪,31.188114,121.387444,1899/12/30 6:30:00,200000,虹梅路店,35041-95166,1
1,黄浦区日月光广场一层1F-A08单元徐家汇路618号,上海,1899/12/30 22:00:00,"['OG', 'DL']",伪,31.207253,121.467891,1899/12/30 7:00:00,200000,日月光店,15312-160108,1
1,上海市黄浦区None徐家汇路268号1F-07/08,上海,1899/12/30 22:00:00,"['OG', 'DL', 'MIC', 'NCB', 'PO']",伪,31.209573,121.476712,1899/12/30 7:00:00,200000,凯德晶萃店,51461-276948,1
1,上海市浦东新区None羽山路116-118号,上海,1899/12/30 22:00:00,"['OG', 'DL', 'MIC', 'NCB', 'PO']",伪,31.230064,121.538265,1899/12/30 7:00:00,200000,羽山路店,52215-280724,1
1,黄浦区永业公寓徐家汇路193-199号,上海,1899/12/30 22:00:00,"['OG', 'DL']",伪,31.208879,121.476897,1899/12/30 7:00:00,200000,永业公寓店,21246-210305,1
1,上海市徐汇区None华山路2038号1楼007室,上海,1899/12/30 22:00:00,"['OG', 'DL']",伪,31.197882,121.436763,1899/12/30 7:00:00,200000,徐汇百联店,51755-279027,1
1,江苏省苏州市昆山市None淀山湖镇中市路312号,苏州市,1899/12/30 21:00:00,"['OG', 'DL']",伪,31.184304,121.023083,1899/12/30 7:30:00,215000,苏州昆山淀山湖中市路店,56666-290593,1
1,上海市闵行区None虹许路538号14幢,上海,1899/12/30 19:00:00,"['OG', 'DL', 'PO']",伪,31.187804,121.393148,1899/12/30 7:00:00,200000,尼克互盛大楼店,49878-271625,1
1,上海市黄浦区None徐家汇路608号1F A-1,上海,1899/12/30 19:00:00,"['OG', 'DL']",伪,31.205739,121.468782,1899/12/30 7:00:00,200000,日月光办公楼店,49032-266624,1
1,工业园区星湖街1205号None101室、102-1室,苏州市,1899/12/30 22:00:00,"['OG', 'DL']",伪,31.291071,120.724264,1899/12/30 7:30:00,215000,苏州星湖街店,28817-251209,1
1,黄浦区黄浦新苑西藏南路1130号,上海,1899/12/30 22:00:00,"['OG', 'DL', 'MIC']",伪,31.210724,121.486157,1899/12/30 7:00:00,200000,黄浦新苑店,23777-233446,1
1,浦东新区金海路1000号None19幢楼一层101室,上海,1899/12/30 18:30:00,"['OG', 'DL']",伪,31.263531,121.620816,1899/12/30 7:00:00,,金领之都店,26870-245747,1
1,徐汇区好望角酒店肇嘉浜路500号,上海,1899/12/30 22:00:00,"['OG', 'DL']",伪,31.201441,121.454231,1899/12/30 7:00:00,200000,好望角店,22851-224947,1
1,黄浦区明珠大酒店大堂肇嘉浜路212号,上海,1899/12/30 22:00:00,"['OG', 'DL']",伪,31.203688,121.462502,1899/12/30 7:00:00,200020,明珠店,8097-151366,1
1,江苏省苏州市三层A-#03-32单元工业园区星港街西苏州中心广场5幢,苏州市,1899/12/30 22:00:00,"['OG', 'DL', 'PO']",伪,31.318495,120.678804,1899/12/30 10:00:00,215000,苏州中心3F店,52218-280733,1
1,徐汇区None广元西路98号3-4室,上海,1899/12/30 22:00:00,"['OG', 'DL']",伪,31.196216,121.434416,1899/12/30 7:00:00,200000,名仕苑店,22072-215045,1
1,徐汇区斜徐路斜徐路593号,上海,1899/12/30 22:00:00,"['OG', 'DL', 'PO']",伪,31.206417,121.472618,1899/12/30 7:00:00,200000,大同店,35062-98160,1
1,工业园区湖滨新天地103-1商铺星港街158号,苏州市,1899/12/30 21:30:00,"['OG', 'DL']",伪,31.316214,120.681412,1899/12/30 8:30:00,215028,苏州金鸡湖店,32218-122384,1
1,上海市青浦区None沪青平公路1583号内街（谢卫路1450号A2-103a）,上海,1899/12/30 22:00:00,"['OG', 'BE', 'DL', 'MIC', 'PO', 'SBB']",伪,31.171813,121.293156,1899/12/30 7:00:00,200000,上海夏都小镇店,55648-289500,1
1,浦东新区宏嘉大厦福山路388号101A单元,上海,1899/12/30 20:00:00,"['OG', 'DL']",伪,31.22472,121.530632,1899/12/30 7:00:00,200000,宏嘉大厦店,17705-185307,1
1,上海市闵行区闵行区古北路1699号一层102单元,上海,1899/12/30 21:30:00,"['OG', 'DL', 'MIC', 'NCB', 'PO']",伪,31.188482,121.40289,1899/12/30 6:30:00,200000,1699广场店,29998-253786,1
1,上海市闵行区None红松路227、235号102A室,上海,1899/12/30 22:00:00,"['OG', 'DL', 'MIC', 'PO']",伪,31.181599,121.370057,1899/12/30 7:00:00,200000,红松路店,52209-280404,1
1,徐汇区均瑶国际广场肇嘉浜路789号1F,上海,1899/12/30 20:00:00,"['OG', 'DL']",伪,31.198536,121.448431,1899/12/30 7:00:00,200000,均瑶店,30902-101578,1
1,卢湾区丽园路口蒙自路169号,上海,1899/12/30 22:30:00,"['OG', 'DL', 'MIC', 'NCB', 'PO']",伪,31.206696,121.477998,1899/12/30 7:00:00,200000,丽园路店,32353-131664,1
1,浦东新区长泰国际金融大厦1楼07单元世纪大道1589号,上海,1899/12/30 20:00:00,['OG'],伪,31.225103,121.534615,1899/12/30 7:00:00,200000,长泰金融店,1673-139375,1
1,徐汇区衡山坊衡山路890弄3号,上海,1899/12/30 22:00:00,"['OG', 'DL']",伪,31.195732,121.439615,1899/12/30 7:00:00,200000,衡山坊店,22400-220865,1
1,上海市徐汇区虹桥路1号地下1层B105KNone单元,上海,1899/12/30 22:00:00,"['OG', 'BE']",伪,31.195227,121.437672,1899/12/30 8:00:00,200000,上海港汇广场B1店,59416-293648,1
1,上海市浦东新区None南洋泾路555号,上海,1899/12/30 21:00:00,"['OG', 'DL', 'PO']",伪,31.23321,121.556763,1899/12/30 7:00:00,200000,陆家嘴创业街区店,52309-281205,1
1,江苏省苏州市一层B-#01-32单元和二层B-#02-30单元工业园区星港街西苏州中心广场3幢,苏州市,1899/12/30 22:30:00,"['OG', 'BE', 'MIC', 'NCB', 'RC', 'SBB']",真,31.316754,120.677816,1899/12/30 8:00:00,215000,苏州中心1F店,51121-263610,1
1,上海市徐汇区None虹桥路1号1楼169铺位,上海,1899/12/30 22:00:00,"['OG', 'DL', 'PO']",伪,31.194722,121.436398,1899/12/30 7:00:00,200030,港汇广场内街店,51748-279025,1
1,上海市徐汇区None虹桥路355号一楼107室,上海,1899/12/30 18:30:00,"['OG', 'DL']",伪,31.193299,121.431328,1899/12/30 7:00:00,200000,城开国际大厦店,51326-278065,1
1,上海市徐汇区None虹桥路1号1楼102B铺位,上海,1899/12/30 18:30:00,['OG'],伪,31.1949,121.437866,1899/12/30 7:00:00,200000,港汇1号办公楼店,51621-278746,1
1,江苏省苏州市六层B-#06-16单元工业园区星港街西苏州中心广场3幢,苏州市,1899/12/30 22:00:00,['OG'],伪,31.316284,120.678082,1899/12/30 10:00:00,215000,苏州中心6F店,52219-280734,1
1,浦东新区浦项世纪大道1600号,上海,1899/12/30 19:30:00,"['OG', 'DL']",伪,31.224057,121.534359,1899/12/30 7:00:00,200122,浦项店,31063-103082,1
